codigoestacion,codigosensor,fechaobservacion,valorobservado,nombreestacion,departamento,municipio,zonahidrografica,latitud,longitud,descripcionsensor,unidadmedida
0021235030,0027,2007-06-06T16:00:00.000,49,UNIVERSIDAD DE CUNDINAMARCA - AUT,CUNDINAMARCA,GIRARDOT,ALTO MAGDALENA,4.305333333,-74.80811111,Humedad del aire 2 mt,%
0053115501,0027,2017-11-05T18:50:00.000,98.93397,DAGUA  - AUT,VALLE DEL CAUCA,DAGUA,TAPAJE - DAGUA - DIRECTOS,3.610441667,-76.63785833,Humedad del aire 2 mt,%
0026125508,0027,2019-02-21T21:20:00.000,85.54683,LACATALINA  - AUT,RISARALDA,PEREIRA,CAUCA,4.7475,-75.73805556,Humedad del aire 2 mt,%
0052015501,0027,2016-07-07T10:00:00.000,46,BALBOA  - AUT,CAUCA,BALBOA,PATÍA,2.125191667,-77.19266667,Humedad del aire 2 mt,%
0023035030,0027,2005-11-02T18:00:00.000,73,BASE PALANQUERO  - AUT,CUNDINAMARCA,PUERTO SALGAR,MEDIO MAGDALENA,5.492861111,-74.658,Humedad del aire 2 mt,%
0021085501,0027,2018-02-23T00:40:00.000,90.2214,TERUEL  - AUT,HUILA,TERUEL,ALTO MAGDALENA,2.762997222,-75.61144167,Humedad del aire 2 mt,%
0026135300,0027,2016-05-19T18:00:00.000,100,PNN QUIMBAYA - AUT,RISARALDA,PEREIRA,CAUCA,4.761916667,-75.74491667,Humedad del aire 2 mt,%
0052055220,0027,2011-12-08T10:00:00.000,78,EL PARAISO - AUT,NARIÑO,TÚQUERRES,PATÍA,1.070611111,-77.63688889,Humedad del aire 2 mt,%
0035025501,0027,2018-01-23T13:25:00.000,51.28735,QUETAME  - AUT,CUNDINAMARCA,QUETAME,META,4.297941667,-73.87238889,Humedad del aire 2 mt,%
0026135320,0027,2010-07-27T14:00:00.000,100,NEVADO SANTA ISABEL  - AUT,CALDAS,VILLAMARIA,CAUCA,4.802611111,-75.38047222,Humedad del aire 2 mt,%
3518500127,0027,2019-08-04T22:00:00.000,100,GUADUALITO - AUT,CASANARE,MONTERREY,META,4.987080556,-72.8651,Humedad del aire 2 mt,%
0037015030,0027,2013-03-25T01:00:00.000,93,BERLIN - AUT,SANTANDER,TONA,ARAUCA,7.187,-72.8685,Humedad del aire 2 mt,%
0023065190,0027,2013-01-07T09:00:00.000,62,QUEBRADA NEGRA - AUT,CUNDINAMARCA,QUEBRADANEGRA,MEDIO MAGDALENA,5.137611111,-74.48125,Humedad del aire 2 mt,%
2120000106,0027,2019-08-25T04:00:00.000,75.29,GRAN BRETAÑA - AUT,BOGOTA D.C.,"BOGOTA, D.C",ALTO MAGDALENA,4.512,-74.164,Humedad del aire 2 mt,%
0021115170,0027,2018-02-27T09:00:00.000,77,LA PLATA - AUT,HUILA,NEIVA,ALTO MAGDALENA,2.759138889,-75.07455556,Humedad del aire 2 mt,%
0021115501,0027,2019-05-13T14:55:00.000,79.53516,TELLO  - AUT,HUILA,TELLO,ALTO MAGDALENA,2.960666667,-75.02849722,Humedad del aire 2 mt,%
2120000102,0027,2019-04-24T10:53:00.000,52.67,COLEGIO CARLOS PIZARRO - AUT,BOGOTA D.C.,"BOGOTA, D.C",ALTO MAGDALENA,4.635,-74.205,Humedad del aire 2 mt,%
2305500055,0027,2019-04-01T08:00:00.000,100,SAN JOSE DE PENSILVANIA - AUT,CALDAS,PENSILVANIA,MEDIO MAGDALENA,5.372638889,-75.150138889,Humedad del aire 2 mt,%
0021202180,0027,2013-09-11T08:55:00.000,71.7,QUIBA - FOPAE,BOGOTA D.C.,"BOGOTA, D.C",ALTO MAGDALENA,4.543,-74.156,Humedad del aire 2 mt,%
0026125506,0027,2018-10-01T20:05:00.000,82.04362,EL AGRADO  - AUT,QUINDÍO,MONTENEGRO,CAUCA,4.518333333,-75.7925,Humedad del aire 2 mt,%
0023065502,0027,2016-06-16T09:40:00.000,58,LA PALMA  - AUT,CUNDINAMARCA,LA PALMA,MEDIO MAGDALENA,5.330266667,-74.40156111,Humedad del aire 2 mt,%
0021202250,0027,2014-01-12T15:00:00.000,42.8,DOÑA JUANA - FOPAE,BOGOTA D.C.,"BOGOTA, D.C",ALTO MAGDALENA,4.5,-74.133,Humedad del aire 2 mt,%
0026195502,0027,2017-09-02T12:05:00.000,56.85218,CIUDAD BOLIVAR  - AUT,ANTIOQUIA,CIUDAD BOLÍVAR,CAUCA,5.868666667,-75.99044167,Humedad del aire 2 mt,%
0022045502,0027,2017-10-03T14:35:00.000,42.60973,EL RUBY  - AUT,TOLIMA,PLANADAS,SALDAÑA,3.95,-75.66666667,Humedad del aire 2 mt,%
0026155505,0027,2018-05-24T08:20:00.000,82.33351,GRANJA LUKER  - AUT,CALDAS,PALESTINA,CAUCA,5.070275,-75.68555278,Humedad del aire 2 mt,%
0027015280,0027,2018-01-11T20:00:00.000,99,PARAMO BELMIRA - AUT,ANTIOQUIA,ENTRERRIOS,NECHÍ,6.632027778,-75.64444444,Humedad del aire 2 mt,%
0026125506,0027,2019-01-14T00:50:00.000,98.37528,EL AGRADO  - AUT,QUINDÍO,MONTENEGRO,CAUCA,4.518333333,-75.7925,Humedad del aire 2 mt,%
0024055080,0027,2018-11-23T18:00:00.000,92,VIZCAINA LA LIZAMA  - AUT,SANTANDER,BARRANCABERMEJA,SOGAMOSO,6.982972222,-73.70488889,Humedad del aire 2 mt,%
0021202200,0027,2015-04-28T12:15:00.000,0,VITELMA,BOGOTA D.C.,"BOGOTA, D.C",META,4.575,-74.072,Humedad del aire 2 mt,%
0021055501,0027,2018-02-15T14:20:00.000,71.24732,SIMON CAMPOS  - AUT,HUILA,LA PLATA,ALTO MAGDALENA,2.345830556,-75.87805556,Humedad del aire 2 mt,%
0025025360,0027,2018-10-16T03:00:00.000,100,AEROPUERTO LAS FLORES  - AUT,MAGDALENA,EL BANCO,BAJO MAGDALENA,9.046333333,-73.97083333,Humedad del aire 2 mt,%
0021015502,0027,2017-07-14T12:30:00.000,38.11596,SAN AGUSTIN  - AUT,HUILA,SAN AGUSTÍN,ALTO MAGDALENA,1.851416667,-76.30433056,Humedad del aire 2 mt,%
2120000106,0027,2019-07-29T06:27:00.000,76.96,GRAN BRETAÑA - AUT,BOGOTA D.C.,"BOGOTA, D.C",ALTO MAGDALENA,4.512,-74.164,Humedad del aire 2 mt,%
0021015502,0027,2018-11-05T14:05:00.000,89.40395,SAN AGUSTIN  - AUT,HUILA,SAN AGUSTÍN,ALTO MAGDALENA,1.851416667,-76.30433056,Humedad del aire 2 mt,%
0021202200,0027,2015-11-16T03:25:00.000,87,VITELMA,BOGOTA D.C.,"BOGOTA, D.C",META,4.575,-74.072,Humedad del aire 2 mt,%
0026185050,0027,2006-10-11T04:00:00.000,90,SANTA BARBARA - AUT,ANTIOQUIA,SANTA BÁRBARA,CAUCA,5.859583333,-75.55627778,Humedad del aire 2 mt,%
0021165502,0027,2018-03-20T14:30:00.000,72.54995,VILLARICA  - AUT,TOLIMA,VILLARRICA,ALTO MAGDALENA,3.955641667,-74.59178611,Humedad del aire 2 mt,%
0036015020,0027,2017-06-29T09:00:00.000,78,EL DIAMANTE - AUT,CASANARE,PAZ DE ARIPORO,META,5.816194444,-71.41983333,Humedad del aire 2 mt,%
0021255160,0027,2006-12-06T05:00:00.000,93,HACIENDA PAJONALES,TOLIMA,AMBALEMA,ALTO MAGDALENA,4.760722222,-74.83425,Humedad del aire 2 mt,%
0021015030,0027,2019-03-13T06:00:00.000,100,PARQUE ARQUEOLOGICO - AUT,HUILA,SAN AGUSTÍN,ALTO MAGDALENA,1.888472222,-76.29497222,Humedad del aire 2 mt,%
0037015501,0027,2019-02-24T22:25:00.000,51.59252,LABATECA  - AUT,NORTE DE SANTANDER,LABATECA,ARAUCA,7.296058333,-72.49772778,Humedad del aire 2 mt,%
0026145506,0027,2018-09-10T13:25:00.000,45.1155,FILO BONITO  - AUT,CALDAS,BELALCAZAR,CAUCA,4.986358333,-75.84574722,Humedad del aire 2 mt,%
0037015030,0027,2006-09-02T18:00:00.000,69,BERLIN - AUT,SANTANDER,TONA,ARAUCA,7.187,-72.8685,Humedad del aire 2 mt,%
0026155505,0027,2017-09-13T18:55:00.000,99.9757,GRANJA LUKER  - AUT,CALDAS,PALESTINA,CAUCA,5.070275,-75.68555278,Humedad del aire 2 mt,%
0026155505,0027,2018-05-25T10:40:00.000,57.8781,GRANJA LUKER  - AUT,CALDAS,PALESTINA,CAUCA,5.070275,-75.68555278,Humedad del aire 2 mt,%
0026175501,0027,2017-05-22T03:55:00.000,100,RAFAEL ESCOBAR  - AUT,CALDAS,SUPIA,CAUCA,5.45,-75.63305556,Humedad del aire 2 mt,%
0026125501,0027,2017-08-13T04:30:00.000,88.3776,GENOVA  - AUT,QUINDÍO,GÉNOVA,CAUCA,4.204416667,-75.76866667,Humedad del aire 2 mt,%
0035085080,0027,2007-09-16T04:00:00.000,95,LA CAPILLA - AUT,BOYACÁ,LA CAPILLA,META,5.099194444,-73.436,Humedad del aire 2 mt,%
0026075501,0027,2017-08-26T08:15:00.000,78.2653,FLORIDA  - AUT,VALLE DEL CAUCA,FLORIDA,CAUCA,3.291469444,-76.17735833,Humedad del aire 2 mt,%
2120000104,0027,2019-02-18T22:29:00.000,79.25,COLEGIO MIGUEL ANTONIO CARO - AUT,BOGOTA D.C.,"BOGOTA, D.C",ALTO MAGDALENA,4.813,-74.031,Humedad del aire 2 mt,%
0021235030,0027,2007-09-14T01:00:00.000,68,UNIVERSIDAD DE CUNDINAMARCA - AUT,CUNDINAMARCA,GIRARDOT,ALTO MAGDALENA,4.305333333,-74.80811111,Humedad del aire 2 mt,%
0021206930,0027,2013-02-09T13:00:00.000,91,PARAMO GUERRERO  - AUT,CUNDINAMARCA,ZIPAQUIRÁ,ALTO MAGDALENA,5.086444444,-74.02216667,Humedad del aire 2 mt,%
0035085060,0027,2005-06-13T00:00:00.000,91,ZETAQUIRA - AUT,BOYACÁ,ZETAQUIRÁ,META,5.294944444,-73.16994444,Humedad del aire 2 mt,%
0021185090,0027,2014-01-17T04:00:00.000,86,NATAIMA - AUT,TOLIMA,ESPINAL,ALTO MAGDALENA,4.188138889,-74.96047222,Humedad del aire 2 mt,%
0035085070,0027,2015-05-04T17:00:00.000,73,SANTA MARIA - AUT,BOYACÁ,SANTA MARÍA,META,4.84125,-73.25669444,Humedad del aire 2 mt,%
0016025501,0027,2016-07-14T13:30:00.000,43,CUCUTILLA  - AUT,NORTE DE SANTANDER,CUCUTILLA,CATATUMBO,7.519455556,-72.79790278,Humedad del aire 2 mt,%
0023065190,0027,2016-05-14T02:00:00.000,1,QUEBRADA NEGRA - AUT,CUNDINAMARCA,QUEBRADANEGRA,MEDIO MAGDALENA,5.137611111,-74.48125,Humedad del aire 2 mt,%
0013095010,0027,2011-10-26T03:00:00.000,97,COVEÑAS - DIMAR,SUCRE,TOLÚ,CARIBE - LITORAL,9.383,-75.667,Humedad del aire 2 mt,%
0021065501,0027,2018-08-05T16:05:00.000,56.86642,JORGE VILLAMIL  - AUT,HUILA,GIGANTE,ALTO MAGDALENA,2.325552778,-75.50972222,Humedad del aire 2 mt,%
0035095130,0027,2019-06-18T19:00:00.000,86.4,LAGUNA DE LA PLAZA,ARAUCA,SARAVENA,CASANARE,6.362,-72.282,Humedad del aire 2 mt,%
0052035501,0027,2019-03-20T04:00:00.000,93.52232,EL SAUCE  - AUT,NARIÑO,LA UNIÓN,PATÍA,1.615555556,-77.10971944,Humedad del aire 2 mt,%
0021185501,0027,2019-02-01T20:55:00.000,95.47353,ROVIRA  - AUT,TOLIMA,ROVIRA,ALTO MAGDALENA,4.266666667,-75.28305556,Humedad del aire 2 mt,%
0021201580,0027,2015-06-04T04:20:00.000,0,PASQUILLA - FOPAE,BOGOTA D.C.,"BOGOTA, D.C",ALTO MAGDALENA,4.447,-74.155,Humedad del aire 2 mt,%
0021206900,0027,2016-02-05T14:40:00.000,88.6,LA ESPERANZA USME - FOPAE,BOGOTA D.C.,"BOGOTA, D.C",META,4.45,-74.1,Humedad del aire 2 mt,%
0026125504,0027,2019-07-18T18:35:00.000,69.33953,PARAGUAICITO  - AUT,QUINDÍO,BUENAVISTA,CAUCA,4.395555556,-75.73416667,Humedad del aire 2 mt,%
0023065501,0027,2017-10-08T22:15:00.000,50.06354,PACHO  - AUT,CUNDINAMARCA,PACHO,MEDIO MAGDALENA,5.129127778,-74.15769722,Humedad del aire 2 mt,%
0026075501,0027,2016-06-10T16:40:00.000,0,FLORIDA  - AUT,VALLE DEL CAUCA,FLORIDA,CAUCA,3.291469444,-76.17735833,Humedad del aire 2 mt,%
0023125501,0027,2018-03-09T11:05:00.000,64.68633,PAUNA  - AUT,BOYACÁ,PAUNA,MEDIO MAGDALENA,5.657130556,-73.96032778,Humedad del aire 2 mt,%
0024015501,0027,2017-10-03T19:50:00.000,88.57278,BERTHA  - AUT,BOYACÁ,MONIQUIRÁ,SOGAMOSO,5.882777778,-73.57333056,Humedad del aire 2 mt,%
2120700037,0027,2019-01-13T21:13:00.000,70.23,CASAS FISCALES ESCUELA DE ARTILLERÍA - AUT,BOGOTA D.C.,"BOGOTA, D.C",ALTO MAGDALENA,4.556,-74.125,Humedad del aire 2 mt,%
0027015290,0027,2019-07-04T11:00:00.000,61,PAJARITO - AUT,ANTIOQUIA,MEDELLÍN,NECHÍ,6.286333333,-75.61279167,Humedad del aire 2 mt,%
0021055501,0027,2018-01-27T16:20:00.000,68.34905,SIMON CAMPOS  - AUT,HUILA,LA PLATA,ALTO MAGDALENA,2.345830556,-75.87805556,Humedad del aire 2 mt,%
0052055502,0027,2017-02-17T03:50:00.000,97,SANDONA  - AUT,NARIÑO,SANDONÁ,PATÍA,1.300888889,-77.46035833,Humedad del aire 2 mt,%
0021205502,0027,2017-11-02T19:50:00.000,92.81347,MISIONES  - AUT,CUNDINAMARCA,EL COLEGIO,ALTO MAGDALENA,4.544997222,-74.44055556,Humedad del aire 2 mt,%
0026145501,0027,2016-08-18T16:00:00.000,73,APIA  - AUT,RISARALDA,APÍA,CAUCA,5.105055556,-75.93305556,Humedad del aire 2 mt,%
0026135502,0027,2017-02-23T13:00:00.000,48,EL JAZMIN  - AUT,RISARALDA,SANTA ROSA DE CABAL,CAUCA,4.911944444,-75.62416389,Humedad del aire 2 mt,%
0026075120,0027,2007-12-01T14:00:00.000,81,LA DIANA - AUT,VALLE DEL CAUCA,FLORIDA,CAUCA,3.314055556,-76.18569444,Humedad del aire 2 mt,%
0026125504,0027,2018-05-24T00:30:00.000,92.15706,PARAGUAICITO  - AUT,QUINDÍO,BUENAVISTA,CAUCA,4.395555556,-75.73416667,Humedad del aire 2 mt,%
0021206920,0027,2008-12-06T19:00:00.000,97,VILLA TERESA - AUT,BOGOTA,"BOGOTA, D.C",ALTO MAGDALENA,4.35,-74.15,Humedad del aire 2 mt,%
0021208480,0027,2012-05-09T10:05:00.000,57.1,KENNEDY - FOPAE,BOGOTA D.C.,"BOGOTA, D.C",ALTO MAGDALENA,4.633,-74.15,Humedad del aire 2 mt,%
0035215030,0027,2018-12-21T12:00:00.000,50,PERENCO: PISBA,BOYACÁ,PISVA,META,5.721,-72.488,Humedad del aire 2 mt,%
0027015501,0027,2017-06-23T14:50:00.000,63.79033,YOLOMBO  - AUT,ANTIOQUIA,YOLOMBÓ,NECHÍ,6.580958333,-75.11487778,Humedad del aire 2 mt,%
0054077210,0027,2019-02-10T10:00:00.000,0,JUANCHACO - AUT,VALLE DEL CAUCA,BUENAVENTURA,SAN JUÁN,3.925147222,-77.34900556,Humedad del aire 2 mt,%
0021165501,0027,2018-05-20T11:40:00.000,90.78348,DOLORES  - AUT,TOLIMA,DOLORES,ALTO MAGDALENA,3.537155556,-74.82982778,Humedad del aire 2 mt,%
0035027510,0027,2017-07-06T18:00:00.000,100,CALOSTROS BAJO - AUT,CUNDINAMARCA,LA CALERA,META,4.6645,-73.863083333,Humedad del aire 2 mt,%
0021206890,0027,2012-06-22T03:30:00.000,87.7,CERRO CAZADORES - FOPAE,BOGOTA D.C.,"BOGOTA, D.C",ALTO MAGDALENA,4.65,-74.017,Humedad del aire 2 mt,%
0052025501,0027,2018-03-14T04:35:00.000,91.29797,LA VEGA  - AUT,CAUCA,LA VEGA,PATÍA,2.092941667,-76.81202778,Humedad del aire 2 mt,%
0026145508,0027,2017-05-11T17:15:00.000,100,SAN JOSE  - AUT,CALDAS,SAN JOSE,CAUCA,5.094972222,-75.79174722,Humedad del aire 2 mt,%
0023065502,0027,2016-07-27T05:15:00.000,91,LA PALMA  - AUT,CUNDINAMARCA,LA PALMA,MEDIO MAGDALENA,5.330266667,-74.40156111,Humedad del aire 2 mt,%
0026185501,0027,2018-02-24T10:10:00.000,82.38769,SONSON  - AUT,ANTIOQUIA,SONSÓN,CAUCA,5.677719444,-75.34780556,Humedad del aire 2 mt,%
0024055501,0027,2019-07-02T00:35:00.000,80.31784,CHUCURI  - AUT,SANTANDER,SAN VICENTE DE CHUCURÍ,SOGAMOSO,6.863566667,-73.38411667,Humedad del aire 2 mt,%
0014017001,0027,2014-10-31T20:00:00.000,95,TESORO INVEMAR,BOLÍVAR,CARTAGENA DE INDIAS,BAJO MAGDALENA,10.235,-75.741,Humedad del aire 2 mt,%
0052055220,0027,2010-11-30T04:00:00.000,97,EL PARAISO - AUT,NARIÑO,TÚQUERRES,PATÍA,1.070611111,-77.63688889,Humedad del aire 2 mt,%
0021202230,0027,2016-06-16T04:10:00.000,81.3,UAN SEDE USME - FOPAE,BOGOTA D.C.,"BOGOTA, D.C",ALTO MAGDALENA,4.467,-74.117,Humedad del aire 2 mt,%
0023055501,0027,2017-08-05T02:25:00.000,74.10213,SANTA HELENA  - AUT,CALDAS,MARQUETALIA,MEDIO MAGDALENA,5.317497222,-74.99610833,Humedad del aire 2 mt,%
0026145504,0027,2016-06-14T13:20:00.000,58,OSPIRMA  - AUT,RISARALDA,GUÁTICA,CAUCA,5.325552778,-75.812775,Humedad del aire 2 mt,%
0053115501,0027,2018-06-13T11:00:00.000,61.20658,DAGUA  - AUT,VALLE DEL CAUCA,DAGUA,TAPAJE - DAGUA - DIRECTOS,3.610441667,-76.63785833,Humedad del aire 2 mt,%
0024015110,0027,2010-11-11T13:00:00.000,64,LA BOYERA - AUT,CUNDINAMARCA,UBATÉ,SOGAMOSO,5.303805556,-73.85175,Humedad del aire 2 mt,%
0026075120,0027,2018-08-08T00:00:00.000,74,LA DIANA - AUT,VALLE DEL CAUCA,FLORIDA,CAUCA,3.314055556,-76.18569444,Humedad del aire 2 mt,%
0023065502,0027,2016-08-15T13:00:00.000,62,LA PALMA  - AUT,CUNDINAMARCA,LA PALMA,MEDIO MAGDALENA,5.330266667,-74.40156111,Humedad del aire 2 mt,%
0023065180,0027,2008-12-07T06:00:00.000,100,VILLETA - AUT,CUNDINAMARCA,VILLETA,MEDIO MAGDALENA,5.016861111,-74.47097222,Humedad del aire 2 mt,%
0026105240,0027,2012-11-04T03:00:00.000,14,EL PLACER - AUT,VALLE DEL CAUCA,BUGA,CAUCA,3.879111111,-76.10055556,Humedad del aire 2 mt,%
0021015502,0027,2018-11-09T10:40:00.000,52.68957,SAN AGUSTIN  - AUT,HUILA,SAN AGUSTÍN,ALTO MAGDALENA,1.851416667,-76.30433056,Humedad del aire 2 mt,%
0024015506,0027,2016-10-09T08:00:00.000,89,CAPELLANIA - CAR,CUNDINAMARCA,FÚQUENE,SOGAMOSO,5.449,-73.769,Humedad del aire 2 mt,%
0026195502,0027,2018-06-11T02:25:00.000,85.83191,CIUDAD BOLIVAR  - AUT,ANTIOQUIA,CIUDAD BOLÍVAR,CAUCA,5.868666667,-75.99044167,Humedad del aire 2 mt,%
0026165501,0027,2016-08-26T19:55:00.000,100,EL CIPRES  - AUT,CALDAS,SALAMINA,CAUCA,5.433333333,-75.5,Humedad del aire 2 mt,%
0024035410,0027,2016-11-30T11:00:00.000,60,SOGAMOSO - AUT,BOYACÁ,SOGAMOSO,SOGAMOSO,5.753333333,-72.91115278,Humedad del aire 2 mt,%
0016025502,0027,2017-06-15T04:30:00.000,99.90632,FRANCISCO ROMERO  - AUT,NORTE DE SANTANDER,SALAZAR,CATATUMBO,7.739166667,-72.78055278,Humedad del aire 2 mt,%
0035025501,0027,2018-09-09T02:40:00.000,96.88472,QUETAME  - AUT,CUNDINAMARCA,QUETAME,META,4.297941667,-73.87238889,Humedad del aire 2 mt,%
0026125505,0027,2019-02-27T03:55:00.000,99.94959,LA BELLA  - AUT,QUINDÍO,CALARCÁ,CAUCA,4.501111111,-75.67138889,Humedad del aire 2 mt,%
0023055502,0027,2018-09-14T15:25:00.000,79.88783,VILLARAZ  - AUT,CALDAS,PENSILVANIA,MEDIO MAGDALENA,5.383333333,-75.06638889,Humedad del aire 2 mt,%
0052025080,0027,2018-04-27T22:00:00.000,87,ESTRECHO PATIA  - AUT,CAUCA,PATÍA (EL BORDO),PATÍA,1.962777778,-77.12027778,Humedad del aire 2 mt,%
0028045501,0027,2017-10-05T18:40:00.000,0.438182,PUEBLO BELLO  - AUT,CESAR,PUEBLO BELLO,CESAR,10.42166667,-73.57471944,Humedad del aire 2 mt,%
0057025020,0027,2013-08-16T20:00:00.000,97,GORGONA GUAPI,CAUCA,GUAPI,GUAVIARE,2.963,-78.174,Humedad del aire 2 mt,%
0021202180,0027,2011-01-03T15:00:00.000,79.7,QUIBA - FOPAE,BOGOTA D.C.,"BOGOTA, D.C",ALTO MAGDALENA,4.543,-74.156,Humedad del aire 2 mt,%
0021165501,0027,2017-03-11T11:15:00.000,85,DOLORES  - AUT,TOLIMA,DOLORES,ALTO MAGDALENA,3.537155556,-74.82982778,Humedad del aire 2 mt,%
0022045502,0027,2018-11-08T18:45:00.000,90.34093,EL RUBY  - AUT,TOLIMA,PLANADAS,SALDAÑA,3.95,-75.66666667,Humedad del aire 2 mt,%
0035095120,0027,2007-03-07T21:00:00.000,76,AQUITANIA - AUT,BOYACÁ,AQUITANIA,META,5.556638889,-72.88175,Humedad del aire 2 mt,%
0021205512,0027,2018-11-08T22:30:00.000,100,EL SOCHE  - AUT,BOGOTA,"BOGOTA, D.C",ALTO MAGDALENA,4.469,-74.079,Humedad del aire 2 mt,%
0035085070,0027,2015-04-26T18:00:00.000,85,SANTA MARIA - AUT,BOYACÁ,SANTA MARÍA,META,4.84125,-73.25669444,Humedad del aire 2 mt,%
0028025120,0027,2007-12-02T09:00:00.000,89,SERRANIA DEL PERIJA  - AUT,CESAR,AGUSTÍN CODAZZI,CESAR,10.02908333,-73.04619444,Humedad del aire 2 mt,%
2120700038,0027,2019-04-01T19:37:00.000,82.4,SAN FRANCISCO - AUT,BOGOTA D.C.,"BOGOTA, D.C",ALTO MAGDALENA,4.562,-74.149,Humedad del aire 2 mt,%
2120000104,0027,2019-06-29T03:09:00.000,91.4,COLEGIO MIGUEL ANTONIO CARO - AUT,BOGOTA D.C.,"BOGOTA, D.C",ALTO MAGDALENA,4.813,-74.031,Humedad del aire 2 mt,%
0021206790,0027,2007-11-27T01:00:00.000,100,HACIENDA SANTA ANA - AUT,CUNDINAMARCA,NEMOCÓN,ALTO MAGDALENA,5.0905,-73.88125,Humedad del aire 2 mt,%
0035025110,0027,2014-05-24T03:00:00.000,60,LA LIBERTAD - AUT,META,VILLAVICENCIO,META,4.057361111,-73.46791667,Humedad del aire 2 mt,%
2120000102,0027,2019-06-24T14:12:00.000,61.26,COLEGIO CARLOS PIZARRO - AUT,BOGOTA D.C.,"BOGOTA, D.C",ALTO MAGDALENA,4.635,-74.205,Humedad del aire 2 mt,%
0021206930,0027,2010-04-22T02:00:00.000,82,PARAMO GUERRERO  - AUT,CUNDINAMARCA,ZIPAQUIRÁ,ALTO MAGDALENA,5.086444444,-74.02216667,Humedad del aire 2 mt,%
0026125505,0027,2018-11-11T08:00:00.000,75.36026,LA BELLA  - AUT,QUINDÍO,CALARCÁ,CAUCA,4.501111111,-75.67138889,Humedad del aire 2 mt,%
0021205501,0027,2016-06-26T12:50:00.000,73,MESITAS DE SANTA INES  - AUT,CUNDINAMARCA,CACHIPAY,ALTO MAGDALENA,4.718611111,-74.45527778,Humedad del aire 2 mt,%
0023065190,0027,2012-08-04T19:00:00.000,62,QUEBRADA NEGRA - AUT,CUNDINAMARCA,QUEBRADANEGRA,MEDIO MAGDALENA,5.137611111,-74.48125,Humedad del aire 2 mt,%
0021015070,0027,2008-04-28T08:00:00.000,92,LOS GUACHAROS  - AUT,HUILA,PALESTINA,ALTO MAGDALENA,1.675833,-76.106841,Humedad del aire 2 mt,%
0021085501,0027,2017-06-04T03:50:00.000,65.52357,TERUEL  - AUT,HUILA,TERUEL,ALTO MAGDALENA,2.762997222,-75.61144167,Humedad del aire 2 mt,%
0021202200,0027,2013-09-06T04:05:00.000,86.8,VITELMA,BOGOTA D.C.,"BOGOTA, D.C",META,4.575,-74.072,Humedad del aire 2 mt,%
0021165502,0027,2018-03-06T16:55:00.000,62.6096,VILLARICA  - AUT,TOLIMA,VILLARRICA,ALTO MAGDALENA,3.955641667,-74.59178611,Humedad del aire 2 mt,%
0021202170,0027,2011-06-15T19:45:00.000,70.6,SIERRA MORENA - FOPAE,BOGOTA D.C.,"BOGOTA, D.C",ALTO MAGDALENA,4.567,-74.167,Humedad del aire 2 mt,%
0021205503,0027,2016-06-01T22:00:00.000,69,EL DELIRIO- CAR,CUNDINAMARCA,EL COLEGIO,ALTO MAGDALENA,4.523,-74.406,Humedad del aire 2 mt,%
0021115501,0027,2019-07-24T16:30:00.000,47.43008,TELLO  - AUT,HUILA,TELLO,ALTO MAGDALENA,2.960666667,-75.02849722,Humedad del aire 2 mt,%
2120000102,0027,2018-10-26T15:47:00.000,67.18,COLEGIO CARLOS PIZARRO - AUT,BOGOTA D.C.,"BOGOTA, D.C",ALTO MAGDALENA,4.635,-74.205,Humedad del aire 2 mt,%
0026205501,0027,2019-07-28T10:25:00.000,62.2691,EL ROSARIO  - AUT,ANTIOQUIA,VENECIA,CAUCA,5.625830556,-75.70527778,Humedad del aire 2 mt,%
0021205502,0027,2017-09-13T22:00:00.000,63.46881,MISIONES  - AUT,CUNDINAMARCA,EL COLEGIO,ALTO MAGDALENA,4.544997222,-74.44055556,Humedad del aire 2 mt,%
0021215501,0027,2019-05-22T00:00:00.000,94.96944,ESPERANZA LA  - AUT,TOLIMA,IBAGUÉ,ALTO MAGDALENA,4.45,-75.25,Humedad del aire 2 mt,%
0052035501,0027,2016-09-17T02:40:00.000,53,EL SAUCE  - AUT,NARIÑO,LA UNIÓN,PATÍA,1.615555556,-77.10971944,Humedad del aire 2 mt,%
0024035380,0027,2013-09-29T03:00:00.000,99,NEVADO DEL COCUY - AUT,BOYACÁ,GUICÁN,SOGAMOSO,6.509111111,-72.31416667,Humedad del aire 2 mt,%
0035095120,0027,2016-07-31T21:00:00.000,82,AQUITANIA - AUT,BOYACÁ,AQUITANIA,META,5.556638889,-72.88175,Humedad del aire 2 mt,%
0035035130,0027,2016-07-01T15:00:00.000,100,PARAMO CHINGAZA  - AUT,CUNDINAMARCA,GUASCA,META,4.713666667,-73.80325,Humedad del aire 2 mt,%
0037015030,0027,2013-09-06T08:00:00.000,86,BERLIN - AUT,SANTANDER,TONA,ARAUCA,7.187,-72.8685,Humedad del aire 2 mt,%
0052025090,0027,2016-03-08T01:00:00.000,100,LA SIERRA - AUT,CAUCA,LA SIERRA,PATÍA,2.193833333,-76.75033333,Humedad del aire 2 mt,%
0021206790,0027,2016-10-19T06:00:00.000,100,HACIENDA SANTA ANA - AUT,CUNDINAMARCA,NEMOCÓN,ALTO MAGDALENA,5.0905,-73.88125,Humedad del aire 2 mt,%
0021209940,0027,2015-11-15T13:40:00.000,77.6,GRAVILLERAS - FOPAE,BOGOTA D.C.,"BOGOTA, D.C",ALTO MAGDALENA,4.533,-74.117,Humedad del aire 2 mt,%
0024035380,0027,2009-01-12T01:00:00.000,0,NEVADO DEL COCUY - AUT,BOYACÁ,GUICÁN,SOGAMOSO,6.509111111,-72.31416667,Humedad del aire 2 mt,%
0026165502,0027,2019-01-12T02:30:00.000,86.03771,JARDIN  - AUT,ANTIOQUIA,JARDÍN,CAUCA,5.6,-75.84972222,Humedad del aire 2 mt,%
0026015030,0027,2019-08-06T02:00:00.000,0,PNN PURACE - AUT,CAUCA,PURACÉ (COCONUCO),CAUCA,2.356848889,-76.40354389,Humedad del aire 2 mt,%
0026125502,0027,2018-04-30T15:00:00.000,55.3069,CAICEDONIA  - AUT,VALLE DEL CAUCA,CAICEDONIA,CAUCA,4.297558333,-75.86396111,Humedad del aire 2 mt,%
0021215501,0027,2017-08-05T14:35:00.000,47.20585,ESPERANZA LA  - AUT,TOLIMA,IBAGUÉ,ALTO MAGDALENA,4.45,-75.25,Humedad del aire 2 mt,%
0021206940,0027,2011-03-13T02:00:00.000,91,CIUDAD BOLIVAR,BOGOTA D.C.,"BOGOTA, D.C",ALTO MAGDALENA,4.577,-74.177,Humedad del aire 2 mt,%
0029065000,0027,2014-04-11T21:00:00.000,84,MEDIA LUNA - AUT,MAGDALENA,PIVIJAI,BAJO MAGDALENA,10.51002778,-74.50666667,Humedad del aire 2 mt,%
0037015030,0027,2012-02-22T09:00:00.000,73,BERLIN - AUT,SANTANDER,TONA,ARAUCA,7.187,-72.8685,Humedad del aire 2 mt,%
0052035501,0027,2018-04-24T10:55:00.000,69.49548,EL SAUCE  - AUT,NARIÑO,LA UNIÓN,PATÍA,1.615555556,-77.10971944,Humedad del aire 2 mt,%
0024035390,0027,2008-06-25T19:00:00.000,90,PARAMO ALMORZADERO  - AUT,SANTANDER,CERRITO,SOGAMOSO,6.945388889,-72.69633333,Humedad del aire 2 mt,%
0025025030,0027,2017-12-08T16:00:00.000,69,AYAPEL,CÓRDOBA,AYAPEL,BAJO MAGDALENA- CAUCA -SAN JORGE,8.295,-75.165,Humedad del aire 2 mt,%
0021205509,0027,2019-02-21T22:30:00.000,92.378,EL DESTINO  - AUT,BOGOTA,"BOGOTA, D.C",ALTO MAGDALENA,4.397,-74.628,Humedad del aire 2 mt,%
0023125501,0027,2019-05-18T01:55:00.000,56.22838,PAUNA  - AUT,BOYACÁ,PAUNA,MEDIO MAGDALENA,5.657130556,-73.96032778,Humedad del aire 2 mt,%
0021202180,0027,2011-05-26T00:05:00.000,82.4,QUIBA - FOPAE,BOGOTA D.C.,"BOGOTA, D.C",ALTO MAGDALENA,4.543,-74.156,Humedad del aire 2 mt,%
2302500064,0027,2019-05-26T23:00:00.000,96,MANZANARES - AUT,CALDAS,MANZANARES,MEDIO MAGDALENA,5.265055556,-75.143055556,Humedad del aire 2 mt,%
0052035501,0027,2017-11-03T00:55:00.000,77.18691,EL SAUCE  - AUT,NARIÑO,LA UNIÓN,PATÍA,1.615555556,-77.10971944,Humedad del aire 2 mt,%
0021206930,0027,2014-04-12T21:00:00.000,95,PARAMO GUERRERO  - AUT,CUNDINAMARCA,ZIPAQUIRÁ,ALTO MAGDALENA,5.086444444,-74.02216667,Humedad del aire 2 mt,%
0024035501,0027,2017-06-03T19:45:00.000,84.65196,ARATOCA  - AUT,SANTANDER,ARATOCA,SOGAMOSO,6.70155,-73.06749167,Humedad del aire 2 mt,%
0052055170,0027,2006-01-16T20:00:00.000,94,LA JOSEFINA - AUT,NARIÑO,CONTADERO,PATÍA,0.930305556,-77.49119444,Humedad del aire 2 mt,%
0021206810,0027,2013-05-22T20:30:00.000,81.5,SAN BENITO - FOPAE,BOGOTA D.C.,"BOGOTA, D.C",ALTO MAGDALENA,4.55,-74.233,Humedad del aire 2 mt,%
0053115501,0027,2019-06-20T21:20:00.000,94.24503,DAGUA  - AUT,VALLE DEL CAUCA,DAGUA,TAPAJE - DAGUA - DIRECTOS,3.610441667,-76.63785833,Humedad del aire 2 mt,%
0021255170,0027,2012-02-12T21:00:00.000,100,MURILLO - AUT,TOLIMA,MURILLO,ALTO MAGDALENA,4.870555556,-75.17327778,Humedad del aire 2 mt,%
0021115170,0027,2018-12-13T11:00:00.000,79,LA PLATA - AUT,HUILA,NEIVA,ALTO MAGDALENA,2.759138889,-75.07455556,Humedad del aire 2 mt,%
0021202250,0027,2012-02-02T22:40:00.000,80.3,DOÑA JUANA - FOPAE,BOGOTA D.C.,"BOGOTA, D.C",ALTO MAGDALENA,4.5,-74.133,Humedad del aire 2 mt,%
0023125501,0027,2016-09-17T19:30:00.000,72,PAUNA  - AUT,BOYACÁ,PAUNA,MEDIO MAGDALENA,5.657130556,-73.96032778,Humedad del aire 2 mt,%
0035165000,0027,2018-08-20T03:00:00.000,88.3,EL TUNEL,BOYACÁ,CUÍTIVA,META,5.575,-72.941,Humedad del aire 2 mt,%
0026165501,0027,2017-08-31T17:50:00.000,64.76151,EL CIPRES  - AUT,CALDAS,SALAMINA,CAUCA,5.433333333,-75.5,Humedad del aire 2 mt,%
0026145504,0027,2018-07-14T03:10:00.000,84.27122,OSPIRMA  - AUT,RISARALDA,GUÁTICA,CAUCA,5.325552778,-75.812775,Humedad del aire 2 mt,%
0021202250,0027,2015-11-15T15:20:00.000,70.8,DOÑA JUANA - FOPAE,BOGOTA D.C.,"BOGOTA, D.C",ALTO MAGDALENA,4.5,-74.133,Humedad del aire 2 mt,%
2120000106,0027,2019-03-19T19:04:00.000,73.23,GRAN BRETAÑA - AUT,BOGOTA D.C.,"BOGOTA, D.C",ALTO MAGDALENA,4.512,-74.164,Humedad del aire 2 mt,%
0021185501,0027,2019-06-04T23:00:00.000,81.59446,ROVIRA  - AUT,TOLIMA,ROVIRA,ALTO MAGDALENA,4.266666667,-75.28305556,Humedad del aire 2 mt,%
0021202250,0027,2011-12-06T13:20:00.000,74.8,DOÑA JUANA - FOPAE,BOGOTA D.C.,"BOGOTA, D.C",ALTO MAGDALENA,4.5,-74.133,Humedad del aire 2 mt,%
0026125503,0027,2019-06-17T01:45:00.000,80.54858,LA SIRENA  - AUT,VALLE DEL CAUCA,SEVILLA,CAUCA,4.285,-75.9025,Humedad del aire 2 mt,%
0026125502,0027,2018-11-13T12:20:00.000,66.63058,CAICEDONIA  - AUT,VALLE DEL CAUCA,CAICEDONIA,CAUCA,4.297558333,-75.86396111,Humedad del aire 2 mt,%
0024015110,0027,2015-01-21T03:00:00.000,91,LA BOYERA - AUT,CUNDINAMARCA,UBATÉ,SOGAMOSO,5.303805556,-73.85175,Humedad del aire 2 mt,%
0021015060,0027,2015-09-07T22:00:00.000,100,MARENGO  - AUT,HUILA,PITALITO,ALTO MAGDALENA,2.221111111,-76.11888889,Humedad del aire 2 mt,%
0026155240,0027,2012-10-07T19:00:00.000,98,PNN NEVADOS - AUT,CALDAS,VILLAMARIA,CAUCA,4.859444444,-75.38241667,Humedad del aire 2 mt,%
0027015330,0027,2018-05-25T20:00:00.000,66,APTO OLAYA HERRERA - TX GPRS,ANTIOQUIA,MEDELLÍN,NECHÍ,6.221,-75.589,Humedad del aire 2 mt,%
0036015501,0027,2016-09-17T22:35:00.000,87,TAMARA  - AUT,CASANARE,TÁMARA,CASANARE,5.872219444,-72.11944167,Humedad del aire 2 mt,%
0026175501,0027,2018-04-25T15:20:00.000,65.676,RAFAEL ESCOBAR  - AUT,CALDAS,SUPIA,CAUCA,5.45,-75.63305556,Humedad del aire 2 mt,%
0052035501,0027,2018-01-22T11:55:00.000,61.98962,EL SAUCE  - AUT,NARIÑO,LA UNIÓN,PATÍA,1.615555556,-77.10971944,Humedad del aire 2 mt,%
0026195501,0027,2016-08-04T18:20:00.000,86,ANDES  - AUT,ANTIOQUIA,ANDES,CAUCA,5.660108333,-75.91413889,Humedad del aire 2 mt,%
0021202170,0027,2015-08-08T17:40:00.000,50.5,SIERRA MORENA - FOPAE,BOGOTA D.C.,"BOGOTA, D.C",ALTO MAGDALENA,4.567,-74.167,Humedad del aire 2 mt,%
0021045501,0027,2017-09-06T05:30:00.000,95.67546,OPORAPA  - AUT,HUILA,OPORAPA,ALTO MAGDALENA,2.041941667,-76.01191667,Humedad del aire 2 mt,%
0021201980,0027,2011-04-26T00:05:00.000,75.3,CERRO GUADALUPE - FOPAE,BOGOTA D.C.,"BOGOTA, D.C",ALTO MAGDALENA,4.567,-74.05,Humedad del aire 2 mt,%
0022045502,0027,2017-08-09T03:20:00.000,77.06827,EL RUBY  - AUT,TOLIMA,PLANADAS,SALDAÑA,3.95,-75.66666667,Humedad del aire 2 mt,%
0021202240,0027,2016-03-21T14:40:00.000,78.81,UAN SEDE CIRCUNVALAR - FOPAE,BOGOTA D.C.,"BOGOTA, D.C",ALTO MAGDALENA,4.633,-74.05,Humedad del aire 2 mt,%
0026145506,0027,2016-07-25T11:40:00.000,72,FILO BONITO  - AUT,CALDAS,BELALCAZAR,CAUCA,4.986358333,-75.84574722,Humedad del aire 2 mt,%
0026145090,0027,2012-09-13T05:00:00.000,95,SANTA EMILIA - AUT,RISARALDA,BELÉN DE UMBRÍA,CAUCA,5.207472222,-75.90294444,Humedad del aire 2 mt,%
0023055501,0027,2017-05-12T04:05:00.000,100,SANTA HELENA  - AUT,CALDAS,MARQUETALIA,MEDIO MAGDALENA,5.317497222,-74.99610833,Humedad del aire 2 mt,%
0037015501,0027,2017-12-11T19:15:00.000,58.48998,LABATECA  - AUT,NORTE DE SANTANDER,LABATECA,ARAUCA,7.296058333,-72.49772778,Humedad del aire 2 mt,%
0026165502,0027,2018-09-09T18:45:00.000,94.21038,JARDIN  - AUT,ANTIOQUIA,JARDÍN,CAUCA,5.6,-75.84972222,Humedad del aire 2 mt,%
0024035370,0027,2014-10-19T08:00:00.000,88,EL ESPINO - AUT,BOYACÁ,EL ESPINO,SOGAMOSO,6.506722222,-72.45266667,Humedad del aire 2 mt,%
0021206810,0027,2012-09-06T08:55:00.000,57.3,SAN BENITO - FOPAE,BOGOTA D.C.,"BOGOTA, D.C",ALTO MAGDALENA,4.55,-74.233,Humedad del aire 2 mt,%
0021201200,0027,2013-09-07T13:50:00.000,81.31,ESC LA UNION - FOPAE,BOGOTA D.C.,"BOGOTA, D.C",ALTO MAGDALENA,4.343,-74.184,Humedad del aire 2 mt,%
0026145504,0027,2018-10-03T09:25:00.000,74.56485,OSPIRMA  - AUT,RISARALDA,GUÁTICA,CAUCA,5.325552778,-75.812775,Humedad del aire 2 mt,%
0021202200,0027,2014-10-07T11:10:00.000,0,VITELMA,BOGOTA D.C.,"BOGOTA, D.C",META,4.575,-74.072,Humedad del aire 2 mt,%
0021195160,0027,2009-11-27T21:00:00.000,99,SUBIA,CUNDINAMARCA,SILVANIA,ALTO MAGDALENA,4.477,-74.384,Humedad del aire 2 mt,%
0016015110,0027,2018-10-15T11:00:00.000,62,UNIVERSIDAD FRANCISO DE PAULA SANTANDER - AUT,NORTE DE SANTANDER,CÚCUTA,CATATUMBO,7.898777778,-72.48716667,Humedad del aire 2 mt,%
0026145507,0027,2019-05-25T23:05:00.000,82.67819,LAS TANGAS  - AUT,CALDAS,BELALCAZAR,CAUCA,5.038,-75.80599722,Humedad del aire 2 mt,%
0026155240,0027,2018-07-06T18:00:00.000,67,PNN NEVADOS - AUT,CALDAS,VILLAMARIA,CAUCA,4.859444444,-75.38241667,Humedad del aire 2 mt,%
0013095010,0027,2009-01-04T18:00:00.000,88,COVEÑAS - DIMAR,SUCRE,TOLÚ,CARIBE - LITORAL,9.383,-75.667,Humedad del aire 2 mt,%
0026065501,0027,2017-08-18T03:40:00.000,92.31042,JAMUNDI  - AUT,VALLE DEL CAUCA,JAMUNDÍ,CAUCA,3.215580556,-76.68021944,Humedad del aire 2 mt,%
2120700037,0027,2019-04-16T23:39:00.000,75.2,CASAS FISCALES ESCUELA DE ARTILLERÍA - AUT,BOGOTA D.C.,"BOGOTA, D.C",ALTO MAGDALENA,4.556,-74.125,Humedad del aire 2 mt,%
0055015010,0027,2018-05-24T16:00:00.000,74,PIE DE PATO - AUT,CHOCO,ALTO BAUDÓ (PIE DE PATO),BAUDÓ - DIRECTOS PACIFICO,5.521083333,-76.97316667,Humedad del aire 2 mt,%
0021202230,0027,2015-10-18T16:20:00.000,65.3,UAN SEDE USME - FOPAE,BOGOTA D.C.,"BOGOTA, D.C",ALTO MAGDALENA,4.467,-74.117,Humedad del aire 2 mt,%
0021255170,0027,2012-03-16T22:00:00.000,100,MURILLO - AUT,TOLIMA,MURILLO,ALTO MAGDALENA,4.870555556,-75.17327778,Humedad del aire 2 mt,%
0021255170,0027,2018-09-29T04:00:00.000,96,MURILLO - AUT,TOLIMA,MURILLO,ALTO MAGDALENA,4.870555556,-75.17327778,Humedad del aire 2 mt,%
0052055501,0027,2019-08-19T10:25:00.000,49.11376,OSPINA PEREZ  - AUT,NARIÑO,CONSACÁ,PATÍA,1.254722222,-77.48777778,Humedad del aire 2 mt,%
0026175501,0027,2017-08-14T22:50:00.000,65.84746,RAFAEL ESCOBAR  - AUT,CALDAS,SUPIA,CAUCA,5.45,-75.63305556,Humedad del aire 2 mt,%
0015075150,0027,2015-08-26T16:00:00.000,40,PAICI - AUT,LA GUAJIRA,URIBIA,CARIBE - GUAJIRA,11.59494444,-72.32575,Humedad del aire 2 mt,%
0026135503,0027,2016-06-09T21:40:00.000,100,NARANJAL  - AUT,CALDAS,CHINCHINA,CAUCA,4.971944444,-75.65221944,Humedad del aire 2 mt,%
0022045502,0027,2019-03-27T22:55:00.000,82.89994,EL RUBY  - AUT,TOLIMA,PLANADAS,SALDAÑA,3.95,-75.66666667,Humedad del aire 2 mt,%
0021215501,0027,2016-06-29T19:25:00.000,76,ESPERANZA LA  - AUT,TOLIMA,IBAGUÉ,ALTO MAGDALENA,4.45,-75.25,Humedad del aire 2 mt,%
0021202240,0027,2015-01-03T04:05:00.000,93.4,UAN SEDE CIRCUNVALAR - FOPAE,BOGOTA D.C.,"BOGOTA, D.C",ALTO MAGDALENA,4.633,-74.05,Humedad del aire 2 mt,%
0025025000,0027,2016-03-02T06:00:00.000,75,EL DIFICIL - AUT,MAGDALENA,ARIGUANÍ (EL DIFICIL),CESAR,9.911972222,-74.08580556,Humedad del aire 2 mt,%
0024015503,0027,2018-01-22T01:00:00.000,89.81672,CONFINES  - AUT,SANTANDER,CONFINES,SOGAMOSO,6.373027778,-73.20760833,Humedad del aire 2 mt,%
0021206900,0027,2015-07-17T14:50:00.000,82.5,LA ESPERANZA USME - FOPAE,BOGOTA D.C.,"BOGOTA, D.C",META,4.45,-74.1,Humedad del aire 2 mt,%
0026055110,0027,2006-03-07T02:00:00.000,97,LA INDEPENDENCIA - AUT,VALLE DEL CAUCA,JAMUNDÍ,CAUCA,3.185361111,-76.56930556,Humedad del aire 2 mt,%
0024055080,0027,2008-12-30T06:00:00.000,100,VIZCAINA LA LIZAMA  - AUT,SANTANDER,BARRANCABERMEJA,SOGAMOSO,6.982972222,-73.70488889,Humedad del aire 2 mt,%
0021165501,0027,2018-06-20T21:50:00.000,75.96806,DOLORES  - AUT,TOLIMA,DOLORES,ALTO MAGDALENA,3.537155556,-74.82982778,Humedad del aire 2 mt,%
0023125170,0027,2016-12-18T02:00:00.000,98,SAN CAYETANO - AUT,CUNDINAMARCA,SAN CAYETANO,MEDIO MAGDALENA,5.333333333,-74.016666667,Humedad del aire 2 mt,%
0026125509,0027,2016-09-18T14:35:00.000,57,ESPERANZA LA  - AUT,QUINDÍO,PIJAO,CAUCA,4.299444444,-75.72508056,Humedad del aire 2 mt,%
0021205502,0027,2016-08-03T05:00:00.000,73,MISIONES  - AUT,CUNDINAMARCA,EL COLEGIO,ALTO MAGDALENA,4.544997222,-74.44055556,Humedad del aire 2 mt,%
0026175501,0027,2017-11-12T20:40:00.000,78.07884,RAFAEL ESCOBAR  - AUT,CALDAS,SUPIA,CAUCA,5.45,-75.63305556,Humedad del aire 2 mt,%
2120000105,0027,2019-05-15T10:59:00.000,65.85,EL CODITO - AUT,BOGOTA D.C.,"BOGOTA, D.C",ALTO MAGDALENA,4.763,-74.022,Humedad del aire 2 mt,%
0028025502,0027,2017-06-29T08:00:00.000,74,APTO ALFONSO LOPEZ,CESAR,VALLEDUPAR,CESAR,10.436,-73.248,Humedad del aire 2 mt,%
0026155502,0027,2019-01-12T12:15:00.000,47.3549,CENICAFE  - AUT,CALDAS,MANIZALES,CAUCA,4.991111111,-75.59749722,Humedad del aire 2 mt,%
2120000102,0027,2019-03-08T23:40:00.000,82.1,COLEGIO CARLOS PIZARRO - AUT,BOGOTA D.C.,"BOGOTA, D.C",ALTO MAGDALENA,4.635,-74.205,Humedad del aire 2 mt,%
0024035390,0027,2016-09-05T02:00:00.000,89,PARAMO ALMORZADERO  - AUT,SANTANDER,CERRITO,SOGAMOSO,6.945388889,-72.69633333,Humedad del aire 2 mt,%
0021206810,0027,2014-09-20T04:05:00.000,76.5,SAN BENITO - FOPAE,BOGOTA D.C.,"BOGOTA, D.C",ALTO MAGDALENA,4.55,-74.233,Humedad del aire 2 mt,%
0029035200,0027,2018-06-19T22:00:00.000,98,REPELON - AUT,ATLANTICO,REPELÓN,BAJO MAGDALENA,10.49,-75.12694444,Humedad del aire 2 mt,%
0021206810,0027,2015-04-21T07:50:00.000,60.3,SAN BENITO - FOPAE,BOGOTA D.C.,"BOGOTA, D.C",ALTO MAGDALENA,4.55,-74.233,Humedad del aire 2 mt,%
0021206780,0027,2013-12-02T17:50:00.000,84.1,LA INDEPENDENCIA FOPAE Fuera de Servicio,BOGOTA D.C.,"BOGOTA, D.C",ALTO MAGDALENA,4.617,-74.317,Humedad del aire 2 mt,%
0029065120,0027,2009-01-08T08:00:00.000,0,BATALLON NO. 6 - AUT,MAGDALENA,FUNDACIÓN,BAJO MAGDALENA,10.46536111,-73.92777778,Humedad del aire 2 mt,%
0016015120,0027,2014-07-06T11:00:00.000,49,UNIVERSIDAD DE PAMPLONA  - AUT,NORTE DE SANTANDER,PAMPLONA,CATATUMBO,7.360944444,-72.66605556,Humedad del aire 2 mt,%
0021197430,0027,2010-07-18T06:00:00.000,98,PROVIDENCIA - PROVIDENCIA,CUNDINAMARCA,FUSAGASUGÁ,ALTO MAGDALENA,4.367,-74.3,Humedad del aire 2 mt,%
0021202240,0027,2013-12-16T12:35:00.000,84.65,UAN SEDE CIRCUNVALAR - FOPAE,BOGOTA D.C.,"BOGOTA, D.C",ALTO MAGDALENA,4.633,-74.05,Humedad del aire 2 mt,%
0021206990,0027,2006-12-31T13:00:00.000,67,TIBAITATA - AUT,CUNDINAMARCA,MOSQUERA,ALTO MAGDALENA,4.691416667,-74.209,Humedad del aire 2 mt,%
0035025080,0027,2009-08-07T22:00:00.000,100,PNN CHINGAZA - AUT,CUNDINAMARCA,LA CALERA,META,4.661,-73.82733333,Humedad del aire 2 mt,%
0028035060,0027,2007-02-05T16:00:00.000,33,FEDEARROZ - AUT,CESAR,VALLEDUPAR,CESAR,10.46361111,-73.24805556,Humedad del aire 2 mt,%
0014015020,0027,2017-08-18T23:00:00.000,89,APTO RAFAEL NUÑEZ  TX GPRS,BOLÍVAR,CARTAGENA,CARIBE - LITORAL,10.447,-75.516,Humedad del aire 2 mt,%
0026135501,0027,2018-08-14T08:45:00.000,96.68694,EL PILAMO  - AUT,RISARALDA,PEREIRA,CAUCA,4.868333333,-75.79333333,Humedad del aire 2 mt,%
0035025090,0027,2014-08-16T10:00:00.000,100,BOSQUE INTERVENIDO  - AUT,CUNDINAMARCA,LA CALERA,META,4.664888889,-73.84663889,Humedad del aire 2 mt,%
0035025080,0027,2011-06-21T08:00:00.000,89,PNN CHINGAZA - AUT,CUNDINAMARCA,LA CALERA,META,4.661,-73.82733333,Humedad del aire 2 mt,%
0021202220,0027,2014-05-13T17:20:00.000,56.96,PARAISO - FOPAE,BOGOTA D.C.,"BOGOTA, D.C",ALTO MAGDALENA,4.617,-74.05,Humedad del aire 2 mt,%
0015075501,0027,2016-01-01T16:00:00.000,57,AEROPUERTO PUERTO BOLIVAR  - AUT,LA GUAJIRA,URIBIA,CARIBE - GUAJIRA,12.22430556,-71.98288889,Humedad del aire 2 mt,%
0026145504,0027,2019-07-06T06:15:00.000,80.23544,OSPIRMA  - AUT,RISARALDA,GUÁTICA,CAUCA,5.325552778,-75.812775,Humedad del aire 2 mt,%
0021201200,0027,2014-12-04T15:25:00.000,85.59,ESC LA UNION - FOPAE,BOGOTA D.C.,"BOGOTA, D.C",ALTO MAGDALENA,4.343,-74.184,Humedad del aire 2 mt,%
0028045501,0027,2017-06-18T00:10:00.000,99.9409,PUEBLO BELLO  - AUT,CESAR,PUEBLO BELLO,CESAR,10.42166667,-73.57471944,Humedad del aire 2 mt,%
0021206940,0027,2011-09-17T10:00:00.000,53,CIUDAD BOLIVAR,BOGOTA D.C.,"BOGOTA, D.C",ALTO MAGDALENA,4.577,-74.177,Humedad del aire 2 mt,%
0026125300,0027,2015-05-09T04:00:00.000,67,CALARCA - AUT,QUINDÍO,CALARCÁ,CAUCA,4.528305556,-75.59638889,Humedad del aire 2 mt,%
0021205523,0027,2019-04-14T19:40:00.000,98.819,UNIVERSIDAD SANTO TOMÁS  - AUT,BOGOTA,"BOGOTA, D.C",ALTO MAGDALENA,4.788,-74.05,Humedad del aire 2 mt,%
0023065506,0027,2019-02-23T03:20:00.000,91.998,BELLAVISTA  - AUT,CUNDINAMARCA,FACATATIVÁ,ALTO MAGDALENA,4.861,-74.405,Humedad del aire 2 mt,%
0026115090,0027,2007-10-19T05:00:00.000,100,LAS BRISAS - AUT,VALLE DEL CAUCA,ANSERMANUEVO,SAN JUÁN,4.775583333,-76.14427778,Humedad del aire 2 mt,%
0026115501,0027,2017-11-07T15:00:00.000,61.3672,MANUEL MARIA MALLARINO  - AUT,VALLE DEL CAUCA,TRUJILLO,CAUCA,4.213611111,-76.31497222,Humedad del aire 2 mt,%
0026015010,0027,2007-04-09T16:00:00.000,67,EL TABLAZO - AUT,CAUCA,POPAYÁN,CAUCA,2.474833056,-76.58129361,Humedad del aire 2 mt,%
0026125505,0027,2018-03-31T05:35:00.000,99.9679,LA BELLA  - AUT,QUINDÍO,CALARCÁ,CAUCA,4.501111111,-75.67138889,Humedad del aire 2 mt,%
0012015100,0027,2013-01-31T13:00:00.000,0,PISTA INDIRA - AUT,ANTIOQUIA,TURBO,CARIBE - LITORAL,7.94075,-76.69616667,Humedad del aire 2 mt,%
0023085270,0027,2017-05-30T11:00:00.000,62,APTO J.M CORDOVA TX GPRS,ANTIOQUIA,RIONEGRO,MEDIO MAGDALENA,6.169,-75.426,Humedad del aire 2 mt,%
0026085160,0027,2016-10-06T08:00:00.000,79,SILOE - AUT,VALLE DEL CAUCA,CALI,CAUCA,3.4255,-76.56061111,Humedad del aire 2 mt,%
2120000106,0027,2019-04-15T13:01:00.000,81.1,GRAN BRETAÑA - AUT,BOGOTA D.C.,"BOGOTA, D.C",ALTO MAGDALENA,4.512,-74.164,Humedad del aire 2 mt,%
0026175501,0027,2016-09-23T23:15:00.000,72,RAFAEL ESCOBAR  - AUT,CALDAS,SUPIA,CAUCA,5.45,-75.63305556,Humedad del aire 2 mt,%
0021205791,0027,2016-06-28T02:00:00.000,74,APTO EL DORADO - TX GPRS,BOGOTA D.C.,"BOGOTA, D.C",ALTO MAGDALENA,4.706,-74.151,Humedad del aire 2 mt,%
0021208480,0027,2014-09-13T09:25:00.000,58.3,KENNEDY - FOPAE,BOGOTA D.C.,"BOGOTA, D.C",ALTO MAGDALENA,4.633,-74.15,Humedad del aire 2 mt,%
0021202250,0027,2013-07-04T02:50:00.000,80.4,DOÑA JUANA - FOPAE,BOGOTA D.C.,"BOGOTA, D.C",ALTO MAGDALENA,4.5,-74.133,Humedad del aire 2 mt,%
0026145507,0027,2019-05-29T23:20:00.000,84.66564,LAS TANGAS  - AUT,CALDAS,BELALCAZAR,CAUCA,5.038,-75.80599722,Humedad del aire 2 mt,%
0052055502,0027,2018-04-19T10:30:00.000,67.9535,SANDONA  - AUT,NARIÑO,SANDONÁ,PATÍA,1.300888889,-77.46035833,Humedad del aire 2 mt,%
0044015501,0027,2019-03-26T22:40:00.000,86.8,MOCOA  - AUT,PUTUMAYO,MOCOA,CAQUETÁ,1.084997222,-76.70763889,Humedad del aire 2 mt,%
0026115501,0027,2019-07-14T04:45:00.000,88.89748,MANUEL MARIA MALLARINO  - AUT,VALLE DEL CAUCA,TRUJILLO,CAUCA,4.213611111,-76.31497222,Humedad del aire 2 mt,%
0026175501,0027,2017-03-14T10:25:00.000,73,RAFAEL ESCOBAR  - AUT,CALDAS,SUPIA,CAUCA,5.45,-75.63305556,Humedad del aire 2 mt,%
2120000105,0027,2019-06-26T12:46:00.000,55.14,EL CODITO - AUT,BOGOTA D.C.,"BOGOTA, D.C",ALTO MAGDALENA,4.763,-74.022,Humedad del aire 2 mt,%
0021202200,0027,2012-10-30T23:00:00.000,86.2,VITELMA,BOGOTA D.C.,"BOGOTA, D.C",META,4.575,-74.072,Humedad del aire 2 mt,%
0016015502,0027,2016-06-11T11:05:00.000,40,BLONAY  - AUT,NORTE DE SANTANDER,CHINÁCOTA,CATATUMBO,7.564997222,-72.62110833,Humedad del aire 2 mt,%
0035025080,0027,2016-02-28T11:00:00.000,82,PNN CHINGAZA - AUT,CUNDINAMARCA,LA CALERA,META,4.661,-73.82733333,Humedad del aire 2 mt,%
0027015290,0027,2006-03-14T10:00:00.000,61,PAJARITO - AUT,ANTIOQUIA,MEDELLÍN,NECHÍ,6.286333333,-75.61279167,Humedad del aire 2 mt,%
0021202230,0027,2015-12-19T01:00:00.000,82.4,UAN SEDE USME - FOPAE,BOGOTA D.C.,"BOGOTA, D.C",ALTO MAGDALENA,4.467,-74.117,Humedad del aire 2 mt,%
0023125170,0027,2015-12-09T05:00:00.000,92,SAN CAYETANO - AUT,CUNDINAMARCA,SAN CAYETANO,MEDIO MAGDALENA,5.333333333,-74.016666667,Humedad del aire 2 mt,%
0023195501,0027,2016-08-30T16:40:00.000,71,SAN ANTONIO  - AUT,SANTANDER,FLORIDABLANCA,MEDIO MAGDALENA,7.099441667,-73.06638611,Humedad del aire 2 mt,%
0021015050,0027,2008-02-22T01:00:00.000,95,PURACE  - AUT,HUILA,SAN AGUSTÍN,ALTO MAGDALENA,1.925916667,-76.42755556,Humedad del aire 2 mt,%
0052055502,0027,2019-01-18T01:50:00.000,77.56437,SANDONA  - AUT,NARIÑO,SANDONÁ,PATÍA,1.300888889,-77.46035833,Humedad del aire 2 mt,%
0026125507,0027,2018-11-14T17:10:00.000,77.4753,ARTURO GOMEZ  - AUT,VALLE DEL CAUCA,ALCALÁ,CAUCA,4.671388889,-75.77721944,Humedad del aire 2 mt,%
0021165501,0027,2019-07-10T05:20:00.000,77.40795,DOLORES  - AUT,TOLIMA,DOLORES,ALTO MAGDALENA,3.537155556,-74.82982778,Humedad del aire 2 mt,%
0024015506,0027,2017-11-10T21:00:00.000,97,CAPELLANIA - CAR,CUNDINAMARCA,FÚQUENE,SOGAMOSO,5.449,-73.769,Humedad del aire 2 mt,%
0026155505,0027,2017-07-31T08:35:00.000,80.116,GRANJA LUKER  - AUT,CALDAS,PALESTINA,CAUCA,5.070275,-75.68555278,Humedad del aire 2 mt,%
0026155503,0027,2018-09-23T12:55:00.000,62.04425,PLANALTO  - AUT,CALDAS,MANIZALES,CAUCA,4.989722222,-75.58971944,Humedad del aire 2 mt,%
0023105070,0027,2017-04-30T09:00:00.000,98,MACEO - AUT,ANTIOQUIA,YOLOMBÓ,MEDIO MAGDALENA,6.571638889,-74.79472222,Humedad del aire 2 mt,%
0026155505,0027,2016-09-22T07:35:00.000,84,GRANJA LUKER  - AUT,CALDAS,PALESTINA,CAUCA,5.070275,-75.68555278,Humedad del aire 2 mt,%
0021202230,0027,2015-01-08T18:30:00.000,77.8,UAN SEDE USME - FOPAE,BOGOTA D.C.,"BOGOTA, D.C",ALTO MAGDALENA,4.467,-74.117,Humedad del aire 2 mt,%
0021202230,0027,2013-01-14T10:40:00.000,62.3,UAN SEDE USME - FOPAE,BOGOTA D.C.,"BOGOTA, D.C",ALTO MAGDALENA,4.467,-74.117,Humedad del aire 2 mt,%
0021055501,0027,2018-01-29T05:55:00.000,76.60049,SIMON CAMPOS  - AUT,HUILA,LA PLATA,ALTO MAGDALENA,2.345830556,-75.87805556,Humedad del aire 2 mt,%
0026175501,0027,2017-09-26T03:00:00.000,88.85241,RAFAEL ESCOBAR  - AUT,CALDAS,SUPIA,CAUCA,5.45,-75.63305556,Humedad del aire 2 mt,%
0024015503,0027,2019-01-19T17:45:00.000,69.29743,CONFINES  - AUT,SANTANDER,CONFINES,SOGAMOSO,6.373027778,-73.20760833,Humedad del aire 2 mt,%
0026125505,0027,2017-05-15T13:00:00.000,51,LA BELLA  - AUT,QUINDÍO,CALARCÁ,CAUCA,4.501111111,-75.67138889,Humedad del aire 2 mt,%
0021202220,0027,2013-07-20T12:35:00.000,71.26,PARAISO - FOPAE,BOGOTA D.C.,"BOGOTA, D.C",ALTO MAGDALENA,4.617,-74.05,Humedad del aire 2 mt,%
0026055120,0027,2016-05-03T07:00:00.000,95,UNIVERSIDAD DEL VALLE  - AUT,VALLE DEL CAUCA,CALI,CAUCA,3.378,-76.53388889,Humedad del aire 2 mt,%
0021202220,0027,2015-05-23T05:25:00.000,71.79,PARAISO - FOPAE,BOGOTA D.C.,"BOGOTA, D.C",ALTO MAGDALENA,4.617,-74.05,Humedad del aire 2 mt,%
0021045501,0027,2019-07-14T13:30:00.000,76.69758,OPORAPA  - AUT,HUILA,OPORAPA,ALTO MAGDALENA,2.041941667,-76.01191667,Humedad del aire 2 mt,%
0021015502,0027,2019-07-13T08:00:00.000,83.08945,SAN AGUSTIN  - AUT,HUILA,SAN AGUSTÍN,ALTO MAGDALENA,1.851416667,-76.30433056,Humedad del aire 2 mt,%
0029065501,0027,2018-03-09T12:35:00.000,52.22041,"CIENAGA,LA  - AUT",MAGDALENA,CIÉNAGA,BAJO MAGDALENA,10.89785833,-74.08156667,Humedad del aire 2 mt,%
0023065503,0027,2018-10-28T21:00:00.000,99.95007,EL MIRADOR  - AUT,CUNDINAMARCA,SASAIMA,MEDIO MAGDALENA,4.95,-74.4,Humedad del aire 2 mt,%
0025025360,0027,2017-01-26T11:00:00.000,69,AEROPUERTO LAS FLORES  - AUT,MAGDALENA,EL BANCO,BAJO MAGDALENA,9.046333333,-73.97083333,Humedad del aire 2 mt,%
2120000107,0027,2018-10-25T15:45:00.000,70.58,LA FISCALA - AUT,BOGOTA D.C.,"BOGOTA, D.C",ALTO MAGDALENA,4.536,-74.106,Humedad del aire 2 mt,%
0032075501,0027,2016-08-16T23:20:00.000,91,LEJANIAS  - AUT,META,LEJANÍAS,GUAVIARE,3.51995,-74.08978611,Humedad del aire 2 mt,%
0026125300,0027,2014-06-11T13:00:00.000,43,CALARCA - AUT,QUINDÍO,CALARCÁ,CAUCA,4.528305556,-75.59638889,Humedad del aire 2 mt,%
0023065180,0027,2006-02-23T13:00:00.000,51,VILLETA - AUT,CUNDINAMARCA,VILLETA,MEDIO MAGDALENA,5.016861111,-74.47097222,Humedad del aire 2 mt,%
0021202200,0027,2015-12-21T13:25:00.000,51.4,VITELMA,BOGOTA D.C.,"BOGOTA, D.C",META,4.575,-74.072,Humedad del aire 2 mt,%
0028035060,0027,2009-09-19T05:00:00.000,75,FEDEARROZ - AUT,CESAR,VALLEDUPAR,CESAR,10.46361111,-73.24805556,Humedad del aire 2 mt,%
0026125505,0027,2017-12-05T01:00:00.000,99.95157,LA BELLA  - AUT,QUINDÍO,CALARCÁ,CAUCA,4.501111111,-75.67138889,Humedad del aire 2 mt,%
0021201980,0027,2012-12-14T14:00:00.000,61.9,CERRO GUADALUPE - FOPAE,BOGOTA D.C.,"BOGOTA, D.C",ALTO MAGDALENA,4.567,-74.05,Humedad del aire 2 mt,%
0029065130,0027,2013-01-14T15:00:00.000,44,LA GRAN VIA - AUT,MAGDALENA,ZONA BANANERA,BAJO MAGDALENA,10.85,-74.13333333,Humedad del aire 2 mt,%
0025025030,0027,2015-12-12T23:00:00.000,89,AYAPEL,CÓRDOBA,AYAPEL,BAJO MAGDALENA- CAUCA -SAN JORGE,8.295,-75.165,Humedad del aire 2 mt,%
0025025380,0027,2015-04-16T17:00:00.000,72,SAN BENITO ABAD - LA MOJANA TX GPRS/GOES,SUCRE,SAN BENITO ABAD,BAJO MAGDALENA- CAUCA -SAN JORGE,9.164,-75.045,Humedad del aire 2 mt,%
0024025090,0027,2005-11-19T02:00:00.000,99,MOGOTES - AUT,SANTANDER,MOGOTES,SOGAMOSO,6.47,-72.96888889,Humedad del aire 2 mt,%
0021202230,0027,2010-11-20T05:50:00.000,89.7,UAN SEDE USME - FOPAE,BOGOTA D.C.,"BOGOTA, D.C",ALTO MAGDALENA,4.467,-74.117,Humedad del aire 2 mt,%
0026125300,0027,2006-08-10T09:00:00.000,93,CALARCA - AUT,QUINDÍO,CALARCÁ,CAUCA,4.528305556,-75.59638889,Humedad del aire 2 mt,%
2120000102,0027,2019-01-08T16:39:00.000,66.71,COLEGIO CARLOS PIZARRO - AUT,BOGOTA D.C.,"BOGOTA, D.C",ALTO MAGDALENA,4.635,-74.205,Humedad del aire 2 mt,%
0028045501,0027,2018-09-10T13:20:00.000,66.04892,PUEBLO BELLO  - AUT,CESAR,PUEBLO BELLO,CESAR,10.42166667,-73.57471944,Humedad del aire 2 mt,%
0021165502,0027,2017-08-09T21:05:00.000,77.36146,VILLARICA  - AUT,TOLIMA,VILLARRICA,ALTO MAGDALENA,3.955641667,-74.59178611,Humedad del aire 2 mt,%
0026015010,0027,2013-10-13T21:00:00.000,99,EL TABLAZO - AUT,CAUCA,POPAYÁN,CAUCA,2.474833056,-76.58129361,Humedad del aire 2 mt,%
0021215501,0027,2017-12-26T23:40:00.000,0.4089701,ESPERANZA LA  - AUT,TOLIMA,IBAGUÉ,ALTO MAGDALENA,4.45,-75.25,Humedad del aire 2 mt,%
0037045010,0027,2019-03-16T07:00:00.000,86,SARAVENA  - AUT,ARAUCA,SARAVENA,ARAUCA,6.946388889,-71.89055556,Humedad del aire 2 mt,%
2120000106,0027,2019-06-29T08:09:00.000,86.4,GRAN BRETAÑA - AUT,BOGOTA D.C.,"BOGOTA, D.C",ALTO MAGDALENA,4.512,-74.164,Humedad del aire 2 mt,%
0021015501,0027,2017-11-30T15:35:00.000,57.42799,PITALITO  - AUT,HUILA,PITALITO,ALTO MAGDALENA,1.777527778,-76.19163889,Humedad del aire 2 mt,%
0021235030,0027,2012-05-14T05:00:00.000,77,UNIVERSIDAD DE CUNDINAMARCA - AUT,CUNDINAMARCA,GIRARDOT,ALTO MAGDALENA,4.305333333,-74.80811111,Humedad del aire 2 mt,%
0021205502,0027,2018-06-04T08:25:00.000,99.98373,MISIONES  - AUT,CUNDINAMARCA,EL COLEGIO,ALTO MAGDALENA,4.544997222,-74.44055556,Humedad del aire 2 mt,%
0023085501,0027,2017-11-24T07:00:00.000,92.76266,COCORNA  - AUT,ANTIOQUIA,COCORNÁ,MEDIO MAGDALENA,6.061941667,-75.18666667,Humedad del aire 2 mt,%
0036015501,0027,2018-06-20T16:25:00.000,86.1106,TAMARA  - AUT,CASANARE,TÁMARA,CASANARE,5.872219444,-72.11944167,Humedad del aire 2 mt,%
0021202180,0027,2010-12-20T15:50:00.000,96.8,QUIBA - FOPAE,BOGOTA D.C.,"BOGOTA, D.C",ALTO MAGDALENA,4.543,-74.156,Humedad del aire 2 mt,%
0026145506,0027,2019-04-16T12:20:00.000,48.58392,FILO BONITO  - AUT,CALDAS,BELALCAZAR,CAUCA,4.986358333,-75.84574722,Humedad del aire 2 mt,%
0026135320,0027,2016-04-15T20:00:00.000,80,NEVADO SANTA ISABEL  - AUT,CALDAS,VILLAMARIA,CAUCA,4.802611111,-75.38047222,Humedad del aire 2 mt,%
0026145090,0027,2006-05-04T03:00:00.000,92,SANTA EMILIA - AUT,RISARALDA,BELÉN DE UMBRÍA,CAUCA,5.207472222,-75.90294444,Humedad del aire 2 mt,%
0021202180,0027,2011-06-27T20:20:00.000,77.6,QUIBA - FOPAE,BOGOTA D.C.,"BOGOTA, D.C",ALTO MAGDALENA,4.543,-74.156,Humedad del aire 2 mt,%
0021165501,0027,2019-07-24T22:40:00.000,77.83399,DOLORES  - AUT,TOLIMA,DOLORES,ALTO MAGDALENA,3.537155556,-74.82982778,Humedad del aire 2 mt,%
0035185010,0027,2016-06-19T22:00:00.000,100,LA PALOMERA - AUT,META,PUERTO LÓPEZ,META,4.260361111,-72.56447222,Humedad del aire 2 mt,%
2120000102,0027,2019-02-04T04:51:00.000,82.5,COLEGIO CARLOS PIZARRO - AUT,BOGOTA D.C.,"BOGOTA, D.C",ALTO MAGDALENA,4.635,-74.205,Humedad del aire 2 mt,%
0021202180,0027,2016-03-02T19:10:00.000,77.8,QUIBA - FOPAE,BOGOTA D.C.,"BOGOTA, D.C",ALTO MAGDALENA,4.543,-74.156,Humedad del aire 2 mt,%
0044035050,0027,2015-09-25T08:00:00.000,66,MACAGUAL - AUT,CAQUETA,FLORENCIA,CAQUETÁ,1.499722222,-75.661,Humedad del aire 2 mt,%
0026145505,0027,2017-07-18T19:55:00.000,74.18974,LA FLORESTA  - AUT,CALDAS,BELALCAZAR,CAUCA,4.979219444,-75.83555556,Humedad del aire 2 mt,%
0011159010,0027,2007-12-06T20:00:00.000,91,CAPURGANA - TX GPRS,CHOCÓ,ACANDÍ,ATRATO - DARIÉN,8.616,-77.331,Humedad del aire 2 mt,%
0021202220,0027,2013-08-21T11:50:00.000,73.34,PARAISO - FOPAE,BOGOTA D.C.,"BOGOTA, D.C",ALTO MAGDALENA,4.617,-74.05,Humedad del aire 2 mt,%
0054077210,0027,2017-12-30T10:00:00.000,84,JUANCHACO - AUT,VALLE DEL CAUCA,BUENAVENTURA,SAN JUÁN,3.925147222,-77.34900556,Humedad del aire 2 mt,%
0035025501,0027,2018-11-23T05:10:00.000,93.85899,QUETAME  - AUT,CUNDINAMARCA,QUETAME,META,4.297941667,-73.87238889,Humedad del aire 2 mt,%
0036015501,0027,2018-01-29T09:30:00.000,62.56257,TAMARA  - AUT,CASANARE,TÁMARA,CASANARE,5.872219444,-72.11944167,Humedad del aire 2 mt,%
0026125501,0027,2016-07-06T01:00:00.000,85,GENOVA  - AUT,QUINDÍO,GÉNOVA,CAUCA,4.204416667,-75.76866667,Humedad del aire 2 mt,%
0021215501,0027,2017-03-19T22:00:00.000,0,ESPERANZA LA  - AUT,TOLIMA,IBAGUÉ,ALTO MAGDALENA,4.45,-75.25,Humedad del aire 2 mt,%
0021209940,0027,2014-12-04T16:20:00.000,57.1,GRAVILLERAS - FOPAE,BOGOTA D.C.,"BOGOTA, D.C",ALTO MAGDALENA,4.533,-74.117,Humedad del aire 2 mt,%
0029065501,0027,2018-11-04T07:10:00.000,90.0797,"CIENAGA,LA  - AUT",MAGDALENA,CIÉNAGA,BAJO MAGDALENA,10.89785833,-74.08156667,Humedad del aire 2 mt,%
0026155505,0027,2019-08-04T03:55:00.000,99.91787,GRANJA LUKER  - AUT,CALDAS,PALESTINA,CAUCA,5.070275,-75.68555278,Humedad del aire 2 mt,%
2120000105,0027,2019-08-22T17:09:00.000,59.46,EL CODITO - AUT,BOGOTA D.C.,"BOGOTA, D.C",ALTO MAGDALENA,4.763,-74.022,Humedad del aire 2 mt,%
0015085050,0027,2011-02-06T05:00:00.000,0,TOROMANA - AUT,LA GUAJIRA,URIBIA,CARIBE - GUAJIRA,12.08352778,-71.21094444,Humedad del aire 2 mt,%
0026125710,0027,2017-05-24T18:00:00.000,69,APTO MATECAÑA TX GPS/GOES,RISARALDA,PEREIRA,CAUCA,4.813,-75.74,Humedad del aire 2 mt,%
0021202250,0027,2011-12-04T01:20:00.000,92.8,DOÑA JUANA - FOPAE,BOGOTA D.C.,"BOGOTA, D.C",ALTO MAGDALENA,4.5,-74.133,Humedad del aire 2 mt,%
0021015070,0027,2013-03-02T09:00:00.000,85,LOS GUACHAROS  - AUT,HUILA,PALESTINA,ALTO MAGDALENA,1.675833,-76.106841,Humedad del aire 2 mt,%
0026135290,0027,2017-03-07T22:00:00.000,86,MARSELLA - AUT,RISARALDA,MARSELLA,CAUCA,4.929583333,-75.73838889,Humedad del aire 2 mt,%
0021205502,0027,2018-10-31T07:00:00.000,71.22848,MISIONES  - AUT,CUNDINAMARCA,EL COLEGIO,ALTO MAGDALENA,4.544997222,-74.44055556,Humedad del aire 2 mt,%
0024010390,0027,2013-05-03T10:00:00.000,65,El TRIANGULO - CAR,CUNDINAMARCA,LENGUAZAQUE,SOGAMOSO,5.305,-73.619,Humedad del aire 2 mt,%
0021115501,0027,2016-06-24T13:10:00.000,37,TELLO  - AUT,HUILA,TELLO,ALTO MAGDALENA,2.960666667,-75.02849722,Humedad del aire 2 mt,%
0021065501,0027,2018-08-13T19:00:00.000,72.3539,JORGE VILLAMIL  - AUT,HUILA,GIGANTE,ALTO MAGDALENA,2.325552778,-75.50972222,Humedad del aire 2 mt,%
2403500041,0027,2019-04-18T03:00:00.000,100,DUITAMA - AUT,BOYACÁ,PAIPA,SOGAMOSO,5.78755,-73.081783333,Humedad del aire 2 mt,%
0035095130,0027,2019-06-25T01:00:00.000,95.7,LAGUNA DE LA PLAZA,ARAUCA,SARAVENA,CASANARE,6.362,-72.282,Humedad del aire 2 mt,%
0021185501,0027,2016-06-26T09:50:00.000,80,ROVIRA  - AUT,TOLIMA,ROVIRA,ALTO MAGDALENA,4.266666667,-75.28305556,Humedad del aire 2 mt,%
0024010390,0027,2015-06-17T16:00:00.000,89,El TRIANGULO - CAR,CUNDINAMARCA,LENGUAZAQUE,SOGAMOSO,5.305,-73.619,Humedad del aire 2 mt,%
0024055501,0027,2019-01-05T05:40:00.000,61.00002,CHUCURI  - AUT,SANTANDER,SAN VICENTE DE CHUCURÍ,SOGAMOSO,6.863566667,-73.38411667,Humedad del aire 2 mt,%
0025025000,0027,2014-10-02T23:00:00.000,90,EL DIFICIL - AUT,MAGDALENA,ARIGUANÍ (EL DIFICIL),CESAR,9.911972222,-74.08580556,Humedad del aire 2 mt,%
0021202200,0027,2015-05-10T05:05:00.000,0,VITELMA,BOGOTA D.C.,"BOGOTA, D.C",META,4.575,-74.072,Humedad del aire 2 mt,%
0052015501,0027,2019-08-02T22:20:00.000,60.46403,BALBOA  - AUT,CAUCA,BALBOA,PATÍA,2.125191667,-77.19266667,Humedad del aire 2 mt,%
2120000102,0027,2019-03-20T17:43:00.000,73.8,COLEGIO CARLOS PIZARRO - AUT,BOGOTA D.C.,"BOGOTA, D.C",ALTO MAGDALENA,4.635,-74.205,Humedad del aire 2 mt,%
0023055502,0027,2017-12-08T03:20:00.000,93.93398,VILLARAZ  - AUT,CALDAS,PENSILVANIA,MEDIO MAGDALENA,5.383333333,-75.06638889,Humedad del aire 2 mt,%
0028045501,0027,2016-09-09T09:25:00.000,70,PUEBLO BELLO  - AUT,CESAR,PUEBLO BELLO,CESAR,10.42166667,-73.57471944,Humedad del aire 2 mt,%
0021255501,0027,2016-08-30T19:15:00.000,87,LA TRINIDAD  - AUT,TOLIMA,LÍBANO,ALTO MAGDALENA,4.895,-75.04,Humedad del aire 2 mt,%
0021206950,0027,2017-12-19T08:00:00.000,58,PARAMO GUACHENEQUE  - AUT,CUNDINAMARCA,VILLAPINZÓN,ALTO MAGDALENA,5.236055556,-73.52508333,Humedad del aire 2 mt,%
0021015501,0027,2019-08-19T00:40:00.000,88.89473,PITALITO  - AUT,HUILA,PITALITO,ALTO MAGDALENA,1.777527778,-76.19163889,Humedad del aire 2 mt,%
0023065502,0027,2019-07-25T20:10:00.000,94.50436,LA PALMA  - AUT,CUNDINAMARCA,LA PALMA,MEDIO MAGDALENA,5.330266667,-74.40156111,Humedad del aire 2 mt,%
0021055070,0027,2018-10-11T00:00:00.000,95,INZA - AUT,CAUCA,INZÁ,ALTO MAGDALENA,2.548194444,-76.06394444,Humedad del aire 2 mt,%
0026115090,0027,2009-01-02T15:00:00.000,83,LAS BRISAS - AUT,VALLE DEL CAUCA,ANSERMANUEVO,SAN JUÁN,4.775583333,-76.14427778,Humedad del aire 2 mt,%
0024025501,0027,2018-05-25T01:50:00.000,97.14291,ALBERTO SANTOS  - AUT,SANTANDER,SOCORRO,SOGAMOSO,6.493052778,-73.22111111,Humedad del aire 2 mt,%
0011025501,0027,2017-06-21T08:30:00.000,83.15783,CARMEN DE ATRATO  - AUT,CHOCO,EL CARMEN,ATRATO - DARIÉN,5.888719444,-76.14516667,Humedad del aire 2 mt,%
0055015010,0027,2007-08-07T17:00:00.000,91,PIE DE PATO - AUT,CHOCO,ALTO BAUDÓ (PIE DE PATO),BAUDÓ - DIRECTOS PACIFICO,5.521083333,-76.97316667,Humedad del aire 2 mt,%
0048015010,0027,2015-07-02T06:00:00.000,95,APTO VASQUEZ COBO TX GPRS/GOES,AMAZONAS,LETICIA,<nil>,-4.194,-69.941,Humedad del aire 2 mt,%
0053115502,0027,2017-10-23T16:15:00.000,88.68279,JULIO FERNANDEZ  - AUT,VALLE DEL CAUCA,RESTREPO,TAPAJE - DAGUA - DIRECTOS,3.809163889,-76.53305556,Humedad del aire 2 mt,%
0026055120,0027,2009-03-30T10:00:00.000,63,UNIVERSIDAD DEL VALLE  - AUT,VALLE DEL CAUCA,CALI,CAUCA,3.378,-76.53388889,Humedad del aire 2 mt,%
0023085501,0027,2018-06-21T10:05:00.000,66.77013,COCORNA  - AUT,ANTIOQUIA,COCORNÁ,MEDIO MAGDALENA,6.061941667,-75.18666667,Humedad del aire 2 mt,%
0026125505,0027,2018-02-28T17:30:00.000,43.43498,LA BELLA  - AUT,QUINDÍO,CALARCÁ,CAUCA,4.501111111,-75.67138889,Humedad del aire 2 mt,%
0052025090,0027,2016-08-30T07:00:00.000,100,LA SIERRA - AUT,CAUCA,LA SIERRA,PATÍA,2.193833333,-76.75033333,Humedad del aire 2 mt,%
0026115090,0027,2010-10-11T14:00:00.000,0,LAS BRISAS - AUT,VALLE DEL CAUCA,ANSERMANUEVO,SAN JUÁN,4.775583333,-76.14427778,Humedad del aire 2 mt,%
0015065190,0027,2012-08-03T16:00:00.000,36,MONGUI,LA GUAJIRA,RIOHACHA,CARIBE - GUAJIRA,11.227,-72.821,Humedad del aire 2 mt,%
2120000104,0027,2019-05-24T01:00:00.000,97.5,COLEGIO MIGUEL ANTONIO CARO - AUT,BOGOTA D.C.,"BOGOTA, D.C",ALTO MAGDALENA,4.813,-74.031,Humedad del aire 2 mt,%
0021035501,0027,2019-02-17T22:40:00.000,84.17232,ACEVEDO  - AUT,HUILA,ACEVEDO,ALTO MAGDALENA,1.763191667,-75.93224722,Humedad del aire 2 mt,%
0026135300,0027,2015-05-02T07:00:00.000,100,PNN QUIMBAYA - AUT,RISARALDA,PEREIRA,CAUCA,4.761916667,-75.74491667,Humedad del aire 2 mt,%
0029015000,0027,2016-04-08T20:00:00.000,69,EL GUAMO - AUT,BOLIVAR,EL GUAMO,BAJO MAGDALENA,10.06444444,-74.85222222,Humedad del aire 2 mt,%
0024035380,0027,2009-09-14T12:00:00.000,94,NEVADO DEL COCUY - AUT,BOYACÁ,GUICÁN,SOGAMOSO,6.509111111,-72.31416667,Humedad del aire 2 mt,%
0021205502,0027,2018-04-28T03:05:00.000,80.72302,MISIONES  - AUT,CUNDINAMARCA,EL COLEGIO,ALTO MAGDALENA,4.544997222,-74.44055556,Humedad del aire 2 mt,%
0026065502,0027,2018-11-07T14:45:00.000,68.88452,TRINIDAD LA  - AUT,CAUCA,PIENDAMÓ,CAUCA,2.750555556,-76.57916667,Humedad del aire 2 mt,%
0036015501,0027,2017-10-11T09:55:00.000,73.11401,TAMARA  - AUT,CASANARE,TÁMARA,CASANARE,5.872219444,-72.11944167,Humedad del aire 2 mt,%
0027015290,0027,2019-03-30T10:00:00.000,78,PAJARITO - AUT,ANTIOQUIA,MEDELLÍN,NECHÍ,6.286333333,-75.61279167,Humedad del aire 2 mt,%
0021015501,0027,2018-09-04T00:25:00.000,98.58127,PITALITO  - AUT,HUILA,PITALITO,ALTO MAGDALENA,1.777527778,-76.19163889,Humedad del aire 2 mt,%
0052045080,0027,2010-03-06T19:00:00.000,68,UNIVERSIDAD DE NARINO  - AUT,NARIÑO,PASTO,PATÍA,1.225111111,-77.28338889,Humedad del aire 2 mt,%
0022025501,0027,2017-12-15T09:50:00.000,60.53754,ATACO  - AUT,TOLIMA,ATACO,SALDAÑA,3.416666667,-75.63305556,Humedad del aire 2 mt,%
0028035060,0027,2010-09-06T07:00:00.000,78,FEDEARROZ - AUT,CESAR,VALLEDUPAR,CESAR,10.46361111,-73.24805556,Humedad del aire 2 mt,%
0021202200,0027,2015-09-14T23:10:00.000,79.1,VITELMA,BOGOTA D.C.,"BOGOTA, D.C",META,4.575,-74.072,Humedad del aire 2 mt,%
0024030950,0027,2019-06-22T04:00:00.000,61,MALAGA 2,SANTANDER,MÁLAGA,SOGAMOSO,6.706388889,-72.72972222,Humedad del aire 2 mt,%
0052055220,0027,2011-10-15T08:00:00.000,93,EL PARAISO - AUT,NARIÑO,TÚQUERRES,PATÍA,1.070611111,-77.63688889,Humedad del aire 2 mt,%
0021206810,0027,2012-03-06T16:45:00.000,40.3,SAN BENITO - FOPAE,BOGOTA D.C.,"BOGOTA, D.C",ALTO MAGDALENA,4.55,-74.233,Humedad del aire 2 mt,%
0054035501,0027,2016-06-18T07:15:00.000,88,SANTIAGO GUTIERREZ  - AUT,VALLE DEL CAUCA,ARGELIA,SAN JUÁN,4.726388889,-76.11446944,Humedad del aire 2 mt,%
0021206950,0027,2015-10-20T02:00:00.000,98,PARAMO GUACHENEQUE  - AUT,CUNDINAMARCA,VILLAPINZÓN,ALTO MAGDALENA,5.236055556,-73.52508333,Humedad del aire 2 mt,%
2401500040,0027,2019-04-08T12:00:00.000,45,CUCUNUBA - AUT,CUNDINAMARCA,CUCUNUBÁ,SOGAMOSO,5.219558333,-73.784541667,Humedad del aire 2 mt,%
0026155230,0027,2008-01-07T08:00:00.000,85,EMAS - AUT,CALDAS,MANIZALES,CAUCA,5.08525,-75.50713889,Humedad del aire 2 mt,%
0021206780,0027,2014-05-29T19:25:00.000,80.9,LA INDEPENDENCIA FOPAE Fuera de Servicio,BOGOTA D.C.,"BOGOTA, D.C",ALTO MAGDALENA,4.617,-74.317,Humedad del aire 2 mt,%
2802500079,0027,2019-03-13T09:00:00.000,52,CARACOLÍ HDA MANATURE - AUT,CESAR,VALLEDUPAR,CESAR,10.088694444,-73.731666667,Humedad del aire 2 mt,%
0035185010,0027,2010-02-12T07:00:00.000,80,LA PALOMERA - AUT,META,PUERTO LÓPEZ,META,4.260361111,-72.56447222,Humedad del aire 2 mt,%
0023195240,0027,2006-10-02T23:00:00.000,95,AGUACHICA - AUT,CESAR,AGUACHICA,MEDIO MAGDALENA,8.123416667,-73.57986111,Humedad del aire 2 mt,%
0021202250,0027,2011-02-19T15:30:00.000,53.7,DOÑA JUANA - FOPAE,BOGOTA D.C.,"BOGOTA, D.C",ALTO MAGDALENA,4.5,-74.133,Humedad del aire 2 mt,%
0021202230,0027,2011-12-25T19:10:00.000,76.9,UAN SEDE USME - FOPAE,BOGOTA D.C.,"BOGOTA, D.C",ALTO MAGDALENA,4.467,-74.117,Humedad del aire 2 mt,%
0026145503,0027,2016-09-26T17:45:00.000,73,ANSERMA  - AUT,CALDAS,ANSERMA,CAUCA,5.231330556,-75.77961667,Humedad del aire 2 mt,%
0026165501,0027,2017-08-18T09:40:00.000,76.58003,EL CIPRES  - AUT,CALDAS,SALAMINA,CAUCA,5.433333333,-75.5,Humedad del aire 2 mt,%
0023065501,0027,2019-06-22T15:30:00.000,55.59685,PACHO  - AUT,CUNDINAMARCA,PACHO,MEDIO MAGDALENA,5.129127778,-74.15769722,Humedad del aire 2 mt,%
0025025350,0027,2008-01-16T09:00:00.000,1,PUERTA ROJA - AUT,SUCRE,SINCELEJO,BAJO MAGDALENA- CAUCA -SAN JORGE,9.316388889,-75.3875,Humedad del aire 2 mt,%
0023065502,0027,2017-07-15T15:20:00.000,96.32117,LA PALMA  - AUT,CUNDINAMARCA,LA PALMA,MEDIO MAGDALENA,5.330266667,-74.40156111,Humedad del aire 2 mt,%
2120700037,0027,2019-03-30T11:39:00.000,63.06,CASAS FISCALES ESCUELA DE ARTILLERÍA - AUT,BOGOTA D.C.,"BOGOTA, D.C",ALTO MAGDALENA,4.556,-74.125,Humedad del aire 2 mt,%
0027015320,0027,2018-03-29T18:00:00.000,0,ARAGON - AUT,ANTIOQUIA,SANTA ROSA DE OSOS,NECHÍ,6.781083333,-75.560888889,Humedad del aire 2 mt,%
0054035501,0027,2017-10-05T09:50:00.000,80.23288,SANTIAGO GUTIERREZ  - AUT,VALLE DEL CAUCA,ARGELIA,SAN JUÁN,4.726388889,-76.11446944,Humedad del aire 2 mt,%
0026145504,0027,2017-08-19T16:45:00.000,72.30909,OSPIRMA  - AUT,RISARALDA,GUÁTICA,CAUCA,5.325552778,-75.812775,Humedad del aire 2 mt,%
0028025120,0027,2010-04-18T15:00:00.000,89,SERRANIA DEL PERIJA  - AUT,CESAR,AGUSTÍN CODAZZI,CESAR,10.02908333,-73.04619444,Humedad del aire 2 mt,%
0023055502,0027,2017-08-27T05:10:00.000,87.9732,VILLARAZ  - AUT,CALDAS,PENSILVANIA,MEDIO MAGDALENA,5.383333333,-75.06638889,Humedad del aire 2 mt,%
0026065502,0027,2019-01-30T19:10:00.000,89.30276,TRINIDAD LA  - AUT,CAUCA,PIENDAMÓ,CAUCA,2.750555556,-76.57916667,Humedad del aire 2 mt,%
0021201200,0027,2016-05-14T15:30:00.000,93.65,ESC LA UNION - FOPAE,BOGOTA D.C.,"BOGOTA, D.C",ALTO MAGDALENA,4.343,-74.184,Humedad del aire 2 mt,%
0026165502,0027,2018-02-17T20:55:00.000,85.23637,JARDIN  - AUT,ANTIOQUIA,JARDÍN,CAUCA,5.6,-75.84972222,Humedad del aire 2 mt,%
0028025120,0027,2013-03-23T17:00:00.000,100,SERRANIA DEL PERIJA  - AUT,CESAR,AGUSTÍN CODAZZI,CESAR,10.02908333,-73.04619444,Humedad del aire 2 mt,%
0023105060,0027,2010-03-10T04:00:00.000,99,VEGACHA,ANTIOQUIA,VEGACHÍ,MEDIO MAGDALENA,6.774,-74.797,Humedad del aire 2 mt,%
0027015501,0027,2017-10-12T14:05:00.000,61.7178,YOLOMBO  - AUT,ANTIOQUIA,YOLOMBÓ,NECHÍ,6.580958333,-75.11487778,Humedad del aire 2 mt,%
0029045150,0027,2007-02-27T06:00:00.000,99,SAIZA - En Siniestro,CÓRDOBA,TIERRALTA,SINÚ,7.746,-76.433,Humedad del aire 2 mt,%
0011045010,0027,2019-02-12T06:00:00.000,100,PR CHOCO: APTO EL CARANO,CHOCO,QUIBDÓ,ATRATO - DARIÉN,5.691,-76.644,Humedad del aire 2 mt,%
0031095030,0027,2009-08-07T01:00:00.000,94,PTO INIRIDA,GUAINÍA,INÍRIDA,INÍRIDA,3.868,-67.932,Humedad del aire 2 mt,%
0026125501,0027,2017-02-21T01:10:00.000,78,GENOVA  - AUT,QUINDÍO,GÉNOVA,CAUCA,4.204416667,-75.76866667,Humedad del aire 2 mt,%
0016055501,0027,2017-08-02T15:05:00.000,63.14293,GABRIEL MARIA  - AUT,NORTE DE SANTANDER,CONVENCIÓN,CATATUMBO,8.412497222,-73.33944167,Humedad del aire 2 mt,%
0035085070,0027,2014-05-14T14:00:00.000,81,SANTA MARIA - AUT,BOYACÁ,SANTA MARÍA,META,4.84125,-73.25669444,Humedad del aire 2 mt,%
0052055501,0027,2018-05-26T01:40:00.000,91.28816,OSPINA PEREZ  - AUT,NARIÑO,CONSACÁ,PATÍA,1.254722222,-77.48777778,Humedad del aire 2 mt,%
0052025080,0027,2014-12-19T08:00:00.000,87,ESTRECHO PATIA  - AUT,CAUCA,PATÍA (EL BORDO),PATÍA,1.962777778,-77.12027778,Humedad del aire 2 mt,%
0021206780,0027,2012-09-08T03:40:00.000,73.1,LA INDEPENDENCIA FOPAE Fuera de Servicio,BOGOTA D.C.,"BOGOTA, D.C",ALTO MAGDALENA,4.617,-74.317,Humedad del aire 2 mt,%
0026155502,0027,2019-02-20T07:55:00.000,94.57942,CENICAFE  - AUT,CALDAS,MANIZALES,CAUCA,4.991111111,-75.59749722,Humedad del aire 2 mt,%
0026145504,0027,2019-04-05T17:30:00.000,73.61084,OSPIRMA  - AUT,RISARALDA,GUÁTICA,CAUCA,5.325552778,-75.812775,Humedad del aire 2 mt,%
0021205501,0027,2017-08-24T16:35:00.000,65.88387,MESITAS DE SANTA INES  - AUT,CUNDINAMARCA,CACHIPAY,ALTO MAGDALENA,4.718611111,-74.45527778,Humedad del aire 2 mt,%
0021195190,0027,2013-11-21T10:00:00.000,92,PASCA - AUT,CUNDINAMARCA,PASCA,ALTO MAGDALENA,4.310111111,-74.31175,Humedad del aire 2 mt,%
0023055502,0027,2017-12-12T22:30:00.000,98.35083,VILLARAZ  - AUT,CALDAS,PENSILVANIA,MEDIO MAGDALENA,5.383333333,-75.06638889,Humedad del aire 2 mt,%
0035185010,0027,2008-06-12T21:00:00.000,92,LA PALOMERA - AUT,META,PUERTO LÓPEZ,META,4.260361111,-72.56447222,Humedad del aire 2 mt,%
0026155502,0027,2018-06-12T14:35:00.000,66.41244,CENICAFE  - AUT,CALDAS,MANIZALES,CAUCA,4.991111111,-75.59749722,Humedad del aire 2 mt,%
0032075501,0027,2017-12-02T12:45:00.000,67.6022,LEJANIAS  - AUT,META,LEJANÍAS,GUAVIARE,3.51995,-74.08978611,Humedad del aire 2 mt,%
0026125504,0027,2019-01-02T06:25:00.000,93.5024,PARAGUAICITO  - AUT,QUINDÍO,BUENAVISTA,CAUCA,4.395555556,-75.73416667,Humedad del aire 2 mt,%
0023015501,0027,2018-03-19T11:20:00.000,80.52648,FRESNO  - AUT,TOLIMA,FRESNO,MEDIO MAGDALENA,5.155638889,-75.00313611,Humedad del aire 2 mt,%
0026215501,0027,2017-06-22T03:25:00.000,96.87286,CONCORDIA  - AUT,ANTIOQUIA,CONCORDIA,CAUCA,6.042441667,-75.92149722,Humedad del aire 2 mt,%
0052025090,0027,2009-10-28T18:00:00.000,69,LA SIERRA - AUT,CAUCA,LA SIERRA,PATÍA,2.193833333,-76.75033333,Humedad del aire 2 mt,%
0021202230,0027,2013-12-07T02:00:00.000,82.4,UAN SEDE USME - FOPAE,BOGOTA D.C.,"BOGOTA, D.C",ALTO MAGDALENA,4.467,-74.117,Humedad del aire 2 mt,%
0026125509,0027,2016-09-25T02:10:00.000,90,ESPERANZA LA  - AUT,QUINDÍO,PIJAO,CAUCA,4.299444444,-75.72508056,Humedad del aire 2 mt,%
0036015020,0027,2006-08-29T19:00:00.000,86,EL DIAMANTE - AUT,CASANARE,PAZ DE ARIPORO,META,5.816194444,-71.41983333,Humedad del aire 2 mt,%
2120000107,0027,2019-05-24T23:08:00.000,75.17,LA FISCALA - AUT,BOGOTA D.C.,"BOGOTA, D.C",ALTO MAGDALENA,4.536,-74.106,Humedad del aire 2 mt,%
0017015010,0027,2017-11-23T13:00:00.000,85,APTO SESQUICENTENARIO TX GPRS,SAN ANDRÉS PROVIDENCIA,SAN ANDRÉS,ISLAS CARIBE,12.542,-81.731,Humedad del aire 2 mt,%
0026125506,0027,2017-06-10T23:40:00.000,85.02946,EL AGRADO  - AUT,QUINDÍO,MONTENEGRO,CAUCA,4.518333333,-75.7925,Humedad del aire 2 mt,%
0021206950,0027,2008-01-29T15:00:00.000,38,PARAMO GUACHENEQUE  - AUT,CUNDINAMARCA,VILLAPINZÓN,ALTO MAGDALENA,5.236055556,-73.52508333,Humedad del aire 2 mt,%
2120000106,0027,2019-06-22T11:59:00.000,86.3,GRAN BRETAÑA - AUT,BOGOTA D.C.,"BOGOTA, D.C",ALTO MAGDALENA,4.512,-74.164,Humedad del aire 2 mt,%
0024015110,0027,2019-01-26T21:00:00.000,89,LA BOYERA - AUT,CUNDINAMARCA,UBATÉ,SOGAMOSO,5.303805556,-73.85175,Humedad del aire 2 mt,%
0035215020,0027,2011-10-24T10:00:00.000,27,APTO YOPAL,CASANARE,YOPAL,META,5.32,-72.388,Humedad del aire 2 mt,%
0023025502,0027,2017-12-06T16:20:00.000,82.26097,ALMACAFE LETRAS  - AUT,CALDAS,MANIZALES,MEDIO MAGDALENA,5.044997222,-75.33221944,Humedad del aire 2 mt,%
0026065502,0027,2018-01-08T17:20:00.000,74.84785,TRINIDAD LA  - AUT,CAUCA,PIENDAMÓ,CAUCA,2.750555556,-76.57916667,Humedad del aire 2 mt,%
0021205527,0027,2019-08-05T08:00:00.000,0.943,ALTO DEL AIRE  - AUT,CUNDINAMARCA,CUCUNUBÁ,ALTO MAGDALENA,5.198,-73.805,Humedad del aire 2 mt,%
0026175501,0027,2019-06-23T00:15:00.000,76.95798,RAFAEL ESCOBAR  - AUT,CALDAS,SUPIA,CAUCA,5.45,-75.63305556,Humedad del aire 2 mt,%
0016025501,0027,2019-07-09T07:35:00.000,98.61217,CUCUTILLA  - AUT,NORTE DE SANTANDER,CUCUTILLA,CATATUMBO,7.519455556,-72.79790278,Humedad del aire 2 mt,%
0035027510,0027,2012-08-06T04:00:00.000,100,CALOSTROS BAJO - AUT,CUNDINAMARCA,LA CALERA,META,4.6645,-73.863083333,Humedad del aire 2 mt,%
0026195502,0027,2018-06-26T07:15:00.000,88.25762,CIUDAD BOLIVAR  - AUT,ANTIOQUIA,CIUDAD BOLÍVAR,CAUCA,5.868666667,-75.99044167,Humedad del aire 2 mt,%
2120700038,0027,2019-06-18T11:41:00.000,63.17,SAN FRANCISCO - AUT,BOGOTA D.C.,"BOGOTA, D.C",ALTO MAGDALENA,4.562,-74.149,Humedad del aire 2 mt,%
0027015320,0027,2016-12-20T22:00:00.000,100,ARAGON - AUT,ANTIOQUIA,SANTA ROSA DE OSOS,NECHÍ,6.781083333,-75.560888889,Humedad del aire 2 mt,%
0027015320,0027,2008-02-24T02:00:00.000,100,ARAGON - AUT,ANTIOQUIA,SANTA ROSA DE OSOS,NECHÍ,6.781083333,-75.560888889,Humedad del aire 2 mt,%
0053045040,0027,2018-03-06T22:00:00.000,97,AEROPUERTO GUAPI - AUT,CAUCA,GUAPI,TAPAJE - DAGUA - DIRECTOS,2.574416667,-77.89475,Humedad del aire 2 mt,%
0052055502,0027,2019-07-24T11:35:00.000,73.8405,SANDONA  - AUT,NARIÑO,SANDONÁ,PATÍA,1.300888889,-77.46035833,Humedad del aire 2 mt,%
0053045040,0027,2017-11-20T01:00:00.000,97,AEROPUERTO GUAPI - AUT,CAUCA,GUAPI,TAPAJE - DAGUA - DIRECTOS,2.574416667,-77.89475,Humedad del aire 2 mt,%
0022045502,0027,2017-09-25T18:35:00.000,59.03064,EL RUBY  - AUT,TOLIMA,PLANADAS,SALDAÑA,3.95,-75.66666667,Humedad del aire 2 mt,%
0027015501,0027,2018-10-25T05:45:00.000,97.05864,YOLOMBO  - AUT,ANTIOQUIA,YOLOMBÓ,NECHÍ,6.580958333,-75.11487778,Humedad del aire 2 mt,%
0016015502,0027,2017-10-13T14:50:00.000,49.22243,BLONAY  - AUT,NORTE DE SANTANDER,CHINÁCOTA,CATATUMBO,7.564997222,-72.62110833,Humedad del aire 2 mt,%
0021202230,0027,2016-01-30T11:10:00.000,36.5,UAN SEDE USME - FOPAE,BOGOTA D.C.,"BOGOTA, D.C",ALTO MAGDALENA,4.467,-74.117,Humedad del aire 2 mt,%
0021065501,0027,2019-07-22T08:30:00.000,59.58033,JORGE VILLAMIL  - AUT,HUILA,GIGANTE,ALTO MAGDALENA,2.325552778,-75.50972222,Humedad del aire 2 mt,%
0024015501,0027,2017-10-14T05:20:00.000,99.95748,BERTHA  - AUT,BOYACÁ,MONIQUIRÁ,SOGAMOSO,5.882777778,-73.57333056,Humedad del aire 2 mt,%
0021215180,0027,2017-10-09T16:00:00.000,81,BATALLON ROOKE  - AUT,TOLIMA,IBAGUÉ,ALTO MAGDALENA,4.418388889,-75.24866667,Humedad del aire 2 mt,%
0021185501,0027,2019-07-21T00:10:00.000,79.33579,ROVIRA  - AUT,TOLIMA,ROVIRA,ALTO MAGDALENA,4.266666667,-75.28305556,Humedad del aire 2 mt,%
0024025090,0027,2012-08-10T10:00:00.000,63,MOGOTES - AUT,SANTANDER,MOGOTES,SOGAMOSO,6.47,-72.96888889,Humedad del aire 2 mt,%
0021201980,0027,2011-10-31T09:30:00.000,59.1,CERRO GUADALUPE - FOPAE,BOGOTA D.C.,"BOGOTA, D.C",ALTO MAGDALENA,4.567,-74.05,Humedad del aire 2 mt,%
0023015501,0027,2018-02-03T02:50:00.000,0.445003,FRESNO  - AUT,TOLIMA,FRESNO,MEDIO MAGDALENA,5.155638889,-75.00313611,Humedad del aire 2 mt,%
0021115170,0027,2016-05-09T03:00:00.000,92,LA PLATA - AUT,HUILA,NEIVA,ALTO MAGDALENA,2.759138889,-75.07455556,Humedad del aire 2 mt,%
2120000106,0027,2019-02-08T13:21:00.000,41.64,GRAN BRETAÑA - AUT,BOGOTA D.C.,"BOGOTA, D.C",ALTO MAGDALENA,4.512,-74.164,Humedad del aire 2 mt,%
0021202220,0027,2015-10-10T10:45:00.000,77.23,PARAISO - FOPAE,BOGOTA D.C.,"BOGOTA, D.C",ALTO MAGDALENA,4.617,-74.05,Humedad del aire 2 mt,%
0021205502,0027,2018-05-19T21:25:00.000,69.72737,MISIONES  - AUT,CUNDINAMARCA,EL COLEGIO,ALTO MAGDALENA,4.544997222,-74.44055556,Humedad del aire 2 mt,%
0026125504,0027,2019-06-07T10:50:00.000,86.87202,PARAGUAICITO  - AUT,QUINDÍO,BUENAVISTA,CAUCA,4.395555556,-75.73416667,Humedad del aire 2 mt,%
0021115501,0027,2018-10-10T10:10:00.000,94.65714,TELLO  - AUT,HUILA,TELLO,ALTO MAGDALENA,2.960666667,-75.02849722,Humedad del aire 2 mt,%
0011105020,0027,2008-06-03T05:00:00.000,1,CARMEN DARIEN,CHOCÓ,CARMEN DEL DARIÉN  (CURBARADÓ),ATRATO - DARIÉN,7.154,-76.977,Humedad del aire 2 mt,%
0026115090,0027,2012-04-04T04:00:00.000,98,LAS BRISAS - AUT,VALLE DEL CAUCA,ANSERMANUEVO,SAN JUÁN,4.775583333,-76.14427778,Humedad del aire 2 mt,%
0056015040,0027,2018-05-25T10:00:00.000,75,PR CHOCO: JURADO,CHOCÓ,JURADO,<nil>,7.104,-77.764,Humedad del aire 2 mt,%
0036015501,0027,2018-03-16T17:25:00.000,53.57218,TAMARA  - AUT,CASANARE,TÁMARA,CASANARE,5.872219444,-72.11944167,Humedad del aire 2 mt,%
0029065501,0027,2018-02-21T14:35:00.000,50.72634,"CIENAGA,LA  - AUT",MAGDALENA,CIÉNAGA,BAJO MAGDALENA,10.89785833,-74.08156667,Humedad del aire 2 mt,%
0022025501,0027,2019-02-03T11:35:00.000,72.60212,ATACO  - AUT,TOLIMA,ATACO,SALDAÑA,3.416666667,-75.63305556,Humedad del aire 2 mt,%
0035085070,0027,2015-01-18T06:00:00.000,95,SANTA MARIA - AUT,BOYACÁ,SANTA MARÍA,META,4.84125,-73.25669444,Humedad del aire 2 mt,%
0024025090,0027,2018-06-21T00:00:00.000,98,MOGOTES - AUT,SANTANDER,MOGOTES,SOGAMOSO,6.47,-72.96888889,Humedad del aire 2 mt,%
0029035200,0027,2013-06-08T02:00:00.000,88,REPELON - AUT,ATLANTICO,REPELÓN,BAJO MAGDALENA,10.49,-75.12694444,Humedad del aire 2 mt,%
0026125507,0027,2018-12-28T17:30:00.000,1.063625,ARTURO GOMEZ  - AUT,VALLE DEL CAUCA,ALCALÁ,CAUCA,4.671388889,-75.77721944,Humedad del aire 2 mt,%
0052055502,0027,2018-06-22T20:40:00.000,93.27536,SANDONA  - AUT,NARIÑO,SANDONÁ,PATÍA,1.300888889,-77.46035833,Humedad del aire 2 mt,%
0021205012,0027,2015-02-25T21:00:00.000,69,UNIVERSIDAD NACIONAL  - AUT,BOGOTA,"BOGOTA, D.C",ALTO MAGDALENA,4.638083333,-74.08908333,Humedad del aire 2 mt,%
0052055210,0027,2008-05-02T18:00:00.000,84,BOTANA - AUT,NARIÑO,PASTO,PATÍA,1.16,-77.27880556,Humedad del aire 2 mt,%
0026195502,0027,2018-05-25T02:55:00.000,88.25595,CIUDAD BOLIVAR  - AUT,ANTIOQUIA,CIUDAD BOLÍVAR,CAUCA,5.868666667,-75.99044167,Humedad del aire 2 mt,%
0021206810,0027,2012-07-29T18:45:00.000,63.8,SAN BENITO - FOPAE,BOGOTA D.C.,"BOGOTA, D.C",ALTO MAGDALENA,4.55,-74.233,Humedad del aire 2 mt,%
0028025502,0027,2018-05-14T10:00:00.000,76,APTO ALFONSO LOPEZ,CESAR,VALLEDUPAR,CESAR,10.436,-73.248,Humedad del aire 2 mt,%
0026145504,0027,2017-10-09T14:30:00.000,73.64859,OSPIRMA  - AUT,RISARALDA,GUÁTICA,CAUCA,5.325552778,-75.812775,Humedad del aire 2 mt,%
0021201980,0027,2014-01-07T22:20:00.000,91.2,CERRO GUADALUPE - FOPAE,BOGOTA D.C.,"BOGOTA, D.C",ALTO MAGDALENA,4.567,-74.05,Humedad del aire 2 mt,%
2120000102,0027,2019-01-18T02:12:00.000,82.2,COLEGIO CARLOS PIZARRO - AUT,BOGOTA D.C.,"BOGOTA, D.C",ALTO MAGDALENA,4.635,-74.205,Humedad del aire 2 mt,%
2120000106,0027,2019-06-29T04:37:00.000,92.8,GRAN BRETAÑA - AUT,BOGOTA D.C.,"BOGOTA, D.C",ALTO MAGDALENA,4.512,-74.164,Humedad del aire 2 mt,%
0026065502,0027,2019-01-03T20:25:00.000,44.04073,TRINIDAD LA  - AUT,CAUCA,PIENDAMÓ,CAUCA,2.750555556,-76.57916667,Humedad del aire 2 mt,%
0021202250,0027,2014-04-15T22:45:00.000,83.8,DOÑA JUANA - FOPAE,BOGOTA D.C.,"BOGOTA, D.C",ALTO MAGDALENA,4.5,-74.133,Humedad del aire 2 mt,%
0021255170,0027,2012-06-13T19:00:00.000,100,MURILLO - AUT,TOLIMA,MURILLO,ALTO MAGDALENA,4.870555556,-75.17327778,Humedad del aire 2 mt,%
0021206980,0027,2013-10-22T16:00:00.000,62,SANTA CRUZ DE SIECHA  - AUT,CUNDINAMARCA,GUASCA,ALTO MAGDALENA,4.784277778,-73.87080556,Humedad del aire 2 mt,%
0023195501,0027,2019-03-17T07:05:00.000,92.6,SAN ANTONIO  - AUT,SANTANDER,FLORIDABLANCA,MEDIO MAGDALENA,7.099441667,-73.06638611,Humedad del aire 2 mt,%
2120000106,0027,2019-07-27T12:20:00.000,80.2,GRAN BRETAÑA - AUT,BOGOTA D.C.,"BOGOTA, D.C",ALTO MAGDALENA,4.512,-74.164,Humedad del aire 2 mt,%
0026075501,0027,2018-01-18T00:50:00.000,0.4851893,FLORIDA  - AUT,VALLE DEL CAUCA,FLORIDA,CAUCA,3.291469444,-76.17735833,Humedad del aire 2 mt,%
0035095130,0027,2017-11-27T23:00:00.000,0,LAGUNA DE LA PLAZA,ARAUCA,SARAVENA,CASANARE,6.362,-72.282,Humedad del aire 2 mt,%
2120700038,0027,2019-05-04T13:51:00.000,49.05,SAN FRANCISCO - AUT,BOGOTA D.C.,"BOGOTA, D.C",ALTO MAGDALENA,4.562,-74.149,Humedad del aire 2 mt,%
0016025502,0027,2017-08-17T20:05:00.000,99.88171,FRANCISCO ROMERO  - AUT,NORTE DE SANTANDER,SALAZAR,CATATUMBO,7.739166667,-72.78055278,Humedad del aire 2 mt,%
0021206890,0027,2014-11-05T11:50:00.000,94.2,CERRO CAZADORES - FOPAE,BOGOTA D.C.,"BOGOTA, D.C",ALTO MAGDALENA,4.65,-74.017,Humedad del aire 2 mt,%
0026125506,0027,2019-03-17T16:15:00.000,53.10973,EL AGRADO  - AUT,QUINDÍO,MONTENEGRO,CAUCA,4.518333333,-75.7925,Humedad del aire 2 mt,%
0026225060,0027,2010-09-15T00:00:00.000,97,HACIENDA COTOVE - AUT,ANTIOQUIA,SANTA FE DE ANTIOQUIA,CAUCA,6.533916667,-75.82733333,Humedad del aire 2 mt,%
0016015110,0027,2006-09-05T12:00:00.000,32,UNIVERSIDAD FRANCISO DE PAULA SANTANDER - AUT,NORTE DE SANTANDER,CÚCUTA,CATATUMBO,7.898777778,-72.48716667,Humedad del aire 2 mt,%
0021045501,0027,2018-08-20T08:40:00.000,90.47169,OPORAPA  - AUT,HUILA,OPORAPA,ALTO MAGDALENA,2.041941667,-76.01191667,Humedad del aire 2 mt,%
0026145507,0027,2018-10-11T11:10:00.000,54.45377,LAS TANGAS  - AUT,CALDAS,BELALCAZAR,CAUCA,5.038,-75.80599722,Humedad del aire 2 mt,%
0026155502,0027,2016-06-20T12:05:00.000,84,CENICAFE  - AUT,CALDAS,MANIZALES,CAUCA,4.991111111,-75.59749722,Humedad del aire 2 mt,%
0023065502,0027,2018-05-25T16:20:00.000,76.94897,LA PALMA  - AUT,CUNDINAMARCA,LA PALMA,MEDIO MAGDALENA,5.330266667,-74.40156111,Humedad del aire 2 mt,%
0035025080,0027,2016-10-05T03:00:00.000,0,PNN CHINGAZA - AUT,CUNDINAMARCA,LA CALERA,META,4.661,-73.82733333,Humedad del aire 2 mt,%
0026075150,0027,2015-11-29T04:00:00.000,92,APTO ALFONSO BONILLA ARAGON - TX GPRS,VALLE DEL CAUCA,PALMIRA,CAUCA,3.533,-76.382,Humedad del aire 2 mt,%
0016035501,0027,2017-09-18T08:05:00.000,64.37188,SARDINATA  - AUT,NORTE DE SANTANDER,SARDINATA,CATATUMBO,8.151169444,-72.86776667,Humedad del aire 2 mt,%
2120000105,0027,2018-11-13T15:19:00.000,63.74,EL CODITO - AUT,BOGOTA D.C.,"BOGOTA, D.C",ALTO MAGDALENA,4.763,-74.022,Humedad del aire 2 mt,%
0035025080,0027,2019-02-20T23:00:00.000,100,PNN CHINGAZA - AUT,CUNDINAMARCA,LA CALERA,META,4.661,-73.82733333,Humedad del aire 2 mt,%
0015065180,0027,2015-08-07T09:00:00.000,59,APTO ALMIRANTE PADILLA TX GPRS,LA GUAJIRA,RIOHACHA,CARIBE - GUAJIRA,11.53,-72.918,Humedad del aire 2 mt,%
0021202220,0027,2013-10-11T06:20:00.000,78.98,PARAISO - FOPAE,BOGOTA D.C.,"BOGOTA, D.C",ALTO MAGDALENA,4.617,-74.05,Humedad del aire 2 mt,%
0035035110,0027,2009-11-30T11:00:00.000,57,SALINAS DE UPIN  - AUT,META,RESTREPO,META,4.273861111,-73.58686111,Humedad del aire 2 mt,%
0024035370,0027,2009-05-07T02:00:00.000,93,EL ESPINO - AUT,BOYACÁ,EL ESPINO,SOGAMOSO,6.506722222,-72.45266667,Humedad del aire 2 mt,%
0021237060,0027,2019-04-09T22:50:00.000,98.309,CORRALITOS PULI,CUNDINAMARCA,PULÍ,ALTO MAGDALENA,4.633,-74.65,Humedad del aire 2 mt,%
0054035501,0027,2018-05-30T11:20:00.000,72.13078,SANTIAGO GUTIERREZ  - AUT,VALLE DEL CAUCA,ARGELIA,SAN JUÁN,4.726388889,-76.11446944,Humedad del aire 2 mt,%
0026215501,0027,2016-08-24T11:15:00.000,66,CONCORDIA  - AUT,ANTIOQUIA,CONCORDIA,CAUCA,6.042441667,-75.92149722,Humedad del aire 2 mt,%
2120700037,0027,2019-06-03T13:27:00.000,58.33,CASAS FISCALES ESCUELA DE ARTILLERÍA - AUT,BOGOTA D.C.,"BOGOTA, D.C",ALTO MAGDALENA,4.556,-74.125,Humedad del aire 2 mt,%
0044035040,0027,2010-04-13T18:00:00.000,95,FLORENCIA - AUT,CAQUETA,FLORENCIA,CAQUETÁ,1.733,-75.64502778,Humedad del aire 2 mt,%
0021055070,0027,2016-10-29T19:00:00.000,86,INZA - AUT,CAUCA,INZÁ,ALTO MAGDALENA,2.548194444,-76.06394444,Humedad del aire 2 mt,%
2120700037,0027,2018-12-14T15:50:00.000,54.36,CASAS FISCALES ESCUELA DE ARTILLERÍA - AUT,BOGOTA D.C.,"BOGOTA, D.C",ALTO MAGDALENA,4.556,-74.125,Humedad del aire 2 mt,%
0023085501,0027,2018-09-09T12:55:00.000,52.34649,COCORNA  - AUT,ANTIOQUIA,COCORNÁ,MEDIO MAGDALENA,6.061941667,-75.18666667,Humedad del aire 2 mt,%
0021202200,0027,2016-07-13T22:15:00.000,32.6,VITELMA,BOGOTA D.C.,"BOGOTA, D.C",META,4.575,-74.072,Humedad del aire 2 mt,%
0026125300,0027,2018-07-17T08:00:00.000,86,CALARCA - AUT,QUINDÍO,CALARCÁ,CAUCA,4.528305556,-75.59638889,Humedad del aire 2 mt,%
0026135503,0027,2016-09-02T12:05:00.000,64,NARANJAL  - AUT,CALDAS,CHINCHINA,CAUCA,4.971944444,-75.65221944,Humedad del aire 2 mt,%
0016015502,0027,2017-10-05T12:30:00.000,54.5587,BLONAY  - AUT,NORTE DE SANTANDER,CHINÁCOTA,CATATUMBO,7.564997222,-72.62110833,Humedad del aire 2 mt,%
0035085080,0027,2006-10-12T07:00:00.000,75,LA CAPILLA - AUT,BOYACÁ,LA CAPILLA,META,5.099194444,-73.436,Humedad del aire 2 mt,%
0026125509,0027,2019-02-10T17:45:00.000,68.49067,ESPERANZA LA  - AUT,QUINDÍO,PIJAO,CAUCA,4.299444444,-75.72508056,Humedad del aire 2 mt,%
0044015070,0027,2016-07-17T22:00:00.000,100,EL PEPINO - AUT,PUTUMAYO,MOCOA,CAQUETÁ,1.082888889,-76.66711111,Humedad del aire 2 mt,%
0035075080,0027,2011-08-11T07:00:00.000,100,PARAMO RABANAL - AUT,BOYACÁ,VENTAQUEMADA,META,5.392388889,-73.56277778,Humedad del aire 2 mt,%
0035215020,0027,2016-06-05T03:00:00.000,8,APTO YOPAL,CASANARE,YOPAL,META,5.32,-72.388,Humedad del aire 2 mt,%
0026185501,0027,2017-05-15T18:15:00.000,92,SONSON  - AUT,ANTIOQUIA,SONSÓN,CAUCA,5.677719444,-75.34780556,Humedad del aire 2 mt,%
0026145090,0027,2015-06-27T14:00:00.000,64,SANTA EMILIA - AUT,RISARALDA,BELÉN DE UMBRÍA,CAUCA,5.207472222,-75.90294444,Humedad del aire 2 mt,%
0026185050,0027,2014-03-25T12:00:00.000,36,SANTA BARBARA - AUT,ANTIOQUIA,SANTA BÁRBARA,CAUCA,5.859583333,-75.55627778,Humedad del aire 2 mt,%
0053115502,0027,2018-08-31T01:10:00.000,98.40817,JULIO FERNANDEZ  - AUT,VALLE DEL CAUCA,RESTREPO,TAPAJE - DAGUA - DIRECTOS,3.809163889,-76.53305556,Humedad del aire 2 mt,%
0021015502,0027,2018-05-11T08:40:00.000,60.84722,SAN AGUSTIN  - AUT,HUILA,SAN AGUSTÍN,ALTO MAGDALENA,1.851416667,-76.30433056,Humedad del aire 2 mt,%
0052045080,0027,2018-12-13T22:00:00.000,78,UNIVERSIDAD DE NARINO  - AUT,NARIÑO,PASTO,PATÍA,1.225111111,-77.28338889,Humedad del aire 2 mt,%
0021206960,0027,2011-10-23T04:00:00.000,82,IDEAM BOGOTA  - AUT,BOGOTA,"BOGOTA, D.C",ALTO MAGDALENA,4.6,-74.06666667,Humedad del aire 2 mt,%
0026125508,0027,2018-12-23T00:10:00.000,85.45264,LACATALINA  - AUT,RISARALDA,PEREIRA,CAUCA,4.7475,-75.73805556,Humedad del aire 2 mt,%
0022025501,0027,2019-01-30T21:00:00.000,86.71507,ATACO  - AUT,TOLIMA,ATACO,SALDAÑA,3.416666667,-75.63305556,Humedad del aire 2 mt,%
0026155240,0027,2011-08-03T23:00:00.000,95,PNN NEVADOS - AUT,CALDAS,VILLAMARIA,CAUCA,4.859444444,-75.38241667,Humedad del aire 2 mt,%
0051025090,0027,2019-07-17T06:00:00.000,98,GRANJA MIRA,NARINO,TUMACO,MIRA,1.55,-78.696,Humedad del aire 2 mt,%
0021202220,0027,2013-11-08T13:45:00.000,95.28,PARAISO - FOPAE,BOGOTA D.C.,"BOGOTA, D.C",ALTO MAGDALENA,4.617,-74.05,Humedad del aire 2 mt,%
0029065000,0027,2018-12-07T23:00:00.000,100,MEDIA LUNA - AUT,MAGDALENA,PIVIJAI,BAJO MAGDALENA,10.51002778,-74.50666667,Humedad del aire 2 mt,%
0021205516,0027,2019-04-01T05:00:00.000,73.737,NEGRETE  - AUT,CUNDINAMARCA,PACHO,ALTO MAGDALENA,5.173,-73.852,Humedad del aire 2 mt,%
0021202200,0027,2011-07-17T08:55:00.000,69.2,VITELMA,BOGOTA D.C.,"BOGOTA, D.C",META,4.575,-74.072,Humedad del aire 2 mt,%
2120000106,0027,2019-02-01T09:36:00.000,32.13,GRAN BRETAÑA - AUT,BOGOTA D.C.,"BOGOTA, D.C",ALTO MAGDALENA,4.512,-74.164,Humedad del aire 2 mt,%
0052035040,0027,2016-03-31T02:00:00.000,94,VIENTO LIBRE - AUT,NARIÑO,TAMINANGO,PATÍA,1.6185,-77.34361111,Humedad del aire 2 mt,%
0021015502,0027,2019-02-15T08:25:00.000,65.79582,SAN AGUSTIN  - AUT,HUILA,SAN AGUSTÍN,ALTO MAGDALENA,1.851416667,-76.30433056,Humedad del aire 2 mt,%
0026125503,0027,2017-03-15T18:10:00.000,79,LA SIRENA  - AUT,VALLE DEL CAUCA,SEVILLA,CAUCA,4.285,-75.9025,Humedad del aire 2 mt,%
0021237060,0027,2019-06-12T10:50:00.000,85.586,CORRALITOS PULI,CUNDINAMARCA,PULÍ,ALTO MAGDALENA,4.633,-74.65,Humedad del aire 2 mt,%
0054035501,0027,2017-09-30T07:05:00.000,95.22106,SANTIAGO GUTIERREZ  - AUT,VALLE DEL CAUCA,ARGELIA,SAN JUÁN,4.726388889,-76.11446944,Humedad del aire 2 mt,%
0021206790,0027,2017-12-04T16:00:00.000,86,HACIENDA SANTA ANA - AUT,CUNDINAMARCA,NEMOCÓN,ALTO MAGDALENA,5.0905,-73.88125,Humedad del aire 2 mt,%
0021206990,0027,2008-11-30T02:00:00.000,100,TIBAITATA - AUT,CUNDINAMARCA,MOSQUERA,ALTO MAGDALENA,4.691416667,-74.209,Humedad del aire 2 mt,%
2120000107,0027,2019-03-30T14:58:00.000,59.04,LA FISCALA - AUT,BOGOTA D.C.,"BOGOTA, D.C",ALTO MAGDALENA,4.536,-74.106,Humedad del aire 2 mt,%
0026145507,0027,2019-05-26T17:10:00.000,65.20795,LAS TANGAS  - AUT,CALDAS,BELALCAZAR,CAUCA,5.038,-75.80599722,Humedad del aire 2 mt,%
0052055501,0027,2018-07-06T06:05:00.000,82.56831,OSPINA PEREZ  - AUT,NARIÑO,CONSACÁ,PATÍA,1.254722222,-77.48777778,Humedad del aire 2 mt,%
0021206790,0027,2008-01-14T05:00:00.000,96,HACIENDA SANTA ANA - AUT,CUNDINAMARCA,NEMOCÓN,ALTO MAGDALENA,5.0905,-73.88125,Humedad del aire 2 mt,%
0016015110,0027,2008-03-18T02:00:00.000,90,UNIVERSIDAD FRANCISO DE PAULA SANTANDER - AUT,NORTE DE SANTANDER,CÚCUTA,CATATUMBO,7.898777778,-72.48716667,Humedad del aire 2 mt,%
0026055120,0027,2014-07-26T06:00:00.000,88,UNIVERSIDAD DEL VALLE  - AUT,VALLE DEL CAUCA,CALI,CAUCA,3.378,-76.53388889,Humedad del aire 2 mt,%
0023065501,0027,2017-05-23T07:40:00.000,99,PACHO  - AUT,CUNDINAMARCA,PACHO,MEDIO MAGDALENA,5.129127778,-74.15769722,Humedad del aire 2 mt,%
0021015070,0027,2011-09-01T03:00:00.000,81,LOS GUACHAROS  - AUT,HUILA,PALESTINA,ALTO MAGDALENA,1.675833,-76.106841,Humedad del aire 2 mt,%
0026195502,0027,2017-03-06T07:20:00.000,92,CIUDAD BOLIVAR  - AUT,ANTIOQUIA,CIUDAD BOLÍVAR,CAUCA,5.868666667,-75.99044167,Humedad del aire 2 mt,%
0023065501,0027,2018-03-24T03:10:00.000,61.22391,PACHO  - AUT,CUNDINAMARCA,PACHO,MEDIO MAGDALENA,5.129127778,-74.15769722,Humedad del aire 2 mt,%
0021165502,0027,2016-09-29T20:35:00.000,68,VILLARICA  - AUT,TOLIMA,VILLARRICA,ALTO MAGDALENA,3.955641667,-74.59178611,Humedad del aire 2 mt,%
0035025501,0027,2018-08-31T13:20:00.000,79.11412,QUETAME  - AUT,CUNDINAMARCA,QUETAME,META,4.297941667,-73.87238889,Humedad del aire 2 mt,%
0021215501,0027,2018-02-09T11:30:00.000,72.74104,ESPERANZA LA  - AUT,TOLIMA,IBAGUÉ,ALTO MAGDALENA,4.45,-75.25,Humedad del aire 2 mt,%
0021185501,0027,2016-06-20T02:45:00.000,96,ROVIRA  - AUT,TOLIMA,ROVIRA,ALTO MAGDALENA,4.266666667,-75.28305556,Humedad del aire 2 mt,%
0021202250,0027,2013-10-12T18:00:00.000,77.9,DOÑA JUANA - FOPAE,BOGOTA D.C.,"BOGOTA, D.C",ALTO MAGDALENA,4.5,-74.133,Humedad del aire 2 mt,%
0026135502,0027,2017-07-14T01:50:00.000,79.31359,EL JAZMIN  - AUT,RISARALDA,SANTA ROSA DE CABAL,CAUCA,4.911944444,-75.62416389,Humedad del aire 2 mt,%
2120700038,0027,2019-02-24T13:37:00.000,60.01,SAN FRANCISCO - AUT,BOGOTA D.C.,"BOGOTA, D.C",ALTO MAGDALENA,4.562,-74.149,Humedad del aire 2 mt,%
0026155505,0027,2017-11-01T04:25:00.000,88.76228,GRANJA LUKER  - AUT,CALDAS,PALESTINA,CAUCA,5.070275,-75.68555278,Humedad del aire 2 mt,%
0024035380,0027,2007-12-09T20:00:00.000,80,NEVADO DEL COCUY - AUT,BOYACÁ,GUICÁN,SOGAMOSO,6.509111111,-72.31416667,Humedad del aire 2 mt,%
0054077210,0027,2010-01-02T00:00:00.000,93,JUANCHACO - AUT,VALLE DEL CAUCA,BUENAVENTURA,SAN JUÁN,3.925147222,-77.34900556,Humedad del aire 2 mt,%
0021205512,0027,2019-01-05T09:40:00.000,22.301,EL SOCHE  - AUT,BOGOTA,"BOGOTA, D.C",ALTO MAGDALENA,4.469,-74.079,Humedad del aire 2 mt,%
0021206930,0027,2018-01-19T02:00:00.000,96,PARAMO GUERRERO  - AUT,CUNDINAMARCA,ZIPAQUIRÁ,ALTO MAGDALENA,5.086444444,-74.02216667,Humedad del aire 2 mt,%
0026125507,0027,2016-06-27T04:45:00.000,100,ARTURO GOMEZ  - AUT,VALLE DEL CAUCA,ALCALÁ,CAUCA,4.671388889,-75.77721944,Humedad del aire 2 mt,%
0016025503,0027,2018-05-01T12:25:00.000,65.26968,GRAMALOTE  - AUT,NORTE DE SANTANDER,GRAMALOTE,CATATUMBO,7.923163889,-72.83375556,Humedad del aire 2 mt,%
0029065130,0027,2016-05-07T06:00:00.000,96,LA GRAN VIA - AUT,MAGDALENA,ZONA BANANERA,BAJO MAGDALENA,10.85,-74.13333333,Humedad del aire 2 mt,%
2120000107,0027,2018-12-20T09:24:00.000,43.2,LA FISCALA - AUT,BOGOTA D.C.,"BOGOTA, D.C",ALTO MAGDALENA,4.536,-74.106,Humedad del aire 2 mt,%
0026225060,0027,2007-12-06T00:00:00.000,95,HACIENDA COTOVE - AUT,ANTIOQUIA,SANTA FE DE ANTIOQUIA,CAUCA,6.533916667,-75.82733333,Humedad del aire 2 mt,%
0036015501,0027,2017-06-21T23:10:00.000,92.1,TAMARA  - AUT,CASANARE,TÁMARA,CASANARE,5.872219444,-72.11944167,Humedad del aire 2 mt,%
0024015110,0027,2006-11-28T08:00:00.000,70,LA BOYERA - AUT,CUNDINAMARCA,UBATÉ,SOGAMOSO,5.303805556,-73.85175,Humedad del aire 2 mt,%
0035025501,0027,2017-07-28T13:20:00.000,68.3901,QUETAME  - AUT,CUNDINAMARCA,QUETAME,META,4.297941667,-73.87238889,Humedad del aire 2 mt,%
0026125300,0027,2009-04-11T22:00:00.000,85,CALARCA - AUT,QUINDÍO,CALARCÁ,CAUCA,4.528305556,-75.59638889,Humedad del aire 2 mt,%
0021045501,0027,2016-07-31T13:15:00.000,88,OPORAPA  - AUT,HUILA,OPORAPA,ALTO MAGDALENA,2.041941667,-76.01191667,Humedad del aire 2 mt,%
0023065502,0027,2017-03-01T05:45:00.000,100,LA PALMA  - AUT,CUNDINAMARCA,LA PALMA,MEDIO MAGDALENA,5.330266667,-74.40156111,Humedad del aire 2 mt,%
0026125508,0027,2018-05-18T12:30:00.000,61.89492,LACATALINA  - AUT,RISARALDA,PEREIRA,CAUCA,4.7475,-75.73805556,Humedad del aire 2 mt,%
0023065502,0027,2019-05-24T13:35:00.000,54.11092,LA PALMA  - AUT,CUNDINAMARCA,LA PALMA,MEDIO MAGDALENA,5.330266667,-74.40156111,Humedad del aire 2 mt,%
0026195502,0027,2018-07-08T05:35:00.000,83.26497,CIUDAD BOLIVAR  - AUT,ANTIOQUIA,CIUDAD BOLÍVAR,CAUCA,5.868666667,-75.99044167,Humedad del aire 2 mt,%
0021201980,0027,2014-01-13T00:20:00.000,86.9,CERRO GUADALUPE - FOPAE,BOGOTA D.C.,"BOGOTA, D.C",ALTO MAGDALENA,4.567,-74.05,Humedad del aire 2 mt,%
0024015507,0027,2019-01-04T11:50:00.000,59.706,OJO DE AGUA  - AUT,CUNDINAMARCA,SIMIJACA,SOGAMOSO,5.392,-73.854,Humedad del aire 2 mt,%
0026155505,0027,2018-12-21T04:45:00.000,99.91061,GRANJA LUKER  - AUT,CALDAS,PALESTINA,CAUCA,5.070275,-75.68555278,Humedad del aire 2 mt,%
0021205502,0027,2019-06-01T03:35:00.000,85.44606,MISIONES  - AUT,CUNDINAMARCA,EL COLEGIO,ALTO MAGDALENA,4.544997222,-74.44055556,Humedad del aire 2 mt,%
2120000105,0027,2019-03-02T07:09:00.000,89.3,EL CODITO - AUT,BOGOTA D.C.,"BOGOTA, D.C",ALTO MAGDALENA,4.763,-74.022,Humedad del aire 2 mt,%
0026165501,0027,2016-09-13T00:30:00.000,100,EL CIPRES  - AUT,CALDAS,SALAMINA,CAUCA,5.433333333,-75.5,Humedad del aire 2 mt,%
0026085501,0027,2019-03-20T19:05:00.000,83.24334,LA CELIA  - AUT,RISARALDA,LA CELIA,CAUCA,5.001330556,-75.998,Humedad del aire 2 mt,%
0026185501,0027,2017-09-22T14:45:00.000,52.39914,SONSON  - AUT,ANTIOQUIA,SONSÓN,CAUCA,5.677719444,-75.34780556,Humedad del aire 2 mt,%
0021215150,0027,2016-09-22T11:00:00.000,100,NEVADO DEL TOLIMA  - AUT,TOLIMA,ANZOÁTEGUI,ALTO MAGDALENA,4.670777778,-75.32777778,Humedad del aire 2 mt,%
2120000106,0027,2019-01-03T16:47:00.000,73.66,GRAN BRETAÑA - AUT,BOGOTA D.C.,"BOGOTA, D.C",ALTO MAGDALENA,4.512,-74.164,Humedad del aire 2 mt,%
0052025501,0027,2018-05-04T01:20:00.000,84.07961,LA VEGA  - AUT,CAUCA,LA VEGA,PATÍA,2.092941667,-76.81202778,Humedad del aire 2 mt,%
0026105250,0027,2012-03-31T08:00:00.000,65,ZARAGOZA - AUT,VALLE DEL CAUCA,CARTAGO,CAUCA,4.689777778,-75.92519444,Humedad del aire 2 mt,%
0023065180,0027,2006-11-03T19:00:00.000,74,VILLETA - AUT,CUNDINAMARCA,VILLETA,MEDIO MAGDALENA,5.016861111,-74.47097222,Humedad del aire 2 mt,%
0021015060,0027,2014-12-07T17:00:00.000,66,MARENGO  - AUT,HUILA,PITALITO,ALTO MAGDALENA,2.221111111,-76.11888889,Humedad del aire 2 mt,%
0021015502,0027,2018-07-25T16:15:00.000,79.55045,SAN AGUSTIN  - AUT,HUILA,SAN AGUSTÍN,ALTO MAGDALENA,1.851416667,-76.30433056,Humedad del aire 2 mt,%
0026185501,0027,2017-11-15T14:00:00.000,80.17607,SONSON  - AUT,ANTIOQUIA,SONSÓN,CAUCA,5.677719444,-75.34780556,Humedad del aire 2 mt,%
0026135503,0027,2018-03-08T06:15:00.000,99.96084,NARANJAL  - AUT,CALDAS,CHINCHINA,CAUCA,4.971944444,-75.65221944,Humedad del aire 2 mt,%
0021035501,0027,2018-11-28T09:30:00.000,79.57117,ACEVEDO  - AUT,HUILA,ACEVEDO,ALTO MAGDALENA,1.763191667,-75.93224722,Humedad del aire 2 mt,%
0021165502,0027,2019-03-03T00:10:00.000,86.25119,VILLARICA  - AUT,TOLIMA,VILLARRICA,ALTO MAGDALENA,3.955641667,-74.59178611,Humedad del aire 2 mt,%
0026055120,0027,2018-01-23T16:00:00.000,57,UNIVERSIDAD DEL VALLE  - AUT,VALLE DEL CAUCA,CALI,CAUCA,3.378,-76.53388889,Humedad del aire 2 mt,%
0026145508,0027,2016-08-14T17:25:00.000,68,SAN JOSE  - AUT,CALDAS,SAN JOSE,CAUCA,5.094972222,-75.79174722,Humedad del aire 2 mt,%
0022025501,0027,2018-10-05T14:15:00.000,66.3954,ATACO  - AUT,TOLIMA,ATACO,SALDAÑA,3.416666667,-75.63305556,Humedad del aire 2 mt,%
0021202250,0027,2016-05-03T16:50:00.000,78.7,DOÑA JUANA - FOPAE,BOGOTA D.C.,"BOGOTA, D.C",ALTO MAGDALENA,4.5,-74.133,Humedad del aire 2 mt,%
0026215501,0027,2016-09-22T10:15:00.000,71,CONCORDIA  - AUT,ANTIOQUIA,CONCORDIA,CAUCA,6.042441667,-75.92149722,Humedad del aire 2 mt,%
0021202250,0027,2010-11-05T21:50:00.000,73.3,DOÑA JUANA - FOPAE,BOGOTA D.C.,"BOGOTA, D.C",ALTO MAGDALENA,4.5,-74.133,Humedad del aire 2 mt,%
0011025501,0027,2019-01-25T00:35:00.000,96.35042,CARMEN DE ATRATO  - AUT,CHOCO,EL CARMEN,ATRATO - DARIÉN,5.888719444,-76.14516667,Humedad del aire 2 mt,%
0021215170,0027,2008-03-22T04:00:00.000,87,LA MARTINICA,TOLIMA,IBAGUÉ,ALTO MAGDALENA,4.402,-75.229,Humedad del aire 2 mt,%
0026135502,0027,2016-07-11T22:20:00.000,94,EL JAZMIN  - AUT,RISARALDA,SANTA ROSA DE CABAL,CAUCA,4.911944444,-75.62416389,Humedad del aire 2 mt,%
0035095130,0027,2018-07-06T01:00:00.000,95.5,LAGUNA DE LA PLAZA,ARAUCA,SARAVENA,CASANARE,6.362,-72.282,Humedad del aire 2 mt,%
0054077210,0027,2017-03-01T01:00:00.000,90,JUANCHACO - AUT,VALLE DEL CAUCA,BUENAVENTURA,SAN JUÁN,3.925147222,-77.34900556,Humedad del aire 2 mt,%
0026125507,0027,2016-06-03T13:00:00.000,61,ARTURO GOMEZ  - AUT,VALLE DEL CAUCA,ALCALÁ,CAUCA,4.671388889,-75.77721944,Humedad del aire 2 mt,%
0011105020,0027,2010-11-19T08:00:00.000,64,CARMEN DARIEN,CHOCÓ,CARMEN DEL DARIÉN  (CURBARADÓ),ATRATO - DARIÉN,7.154,-76.977,Humedad del aire 2 mt,%
0026195501,0027,2018-06-17T00:35:00.000,95.17977,ANDES  - AUT,ANTIOQUIA,ANDES,CAUCA,5.660108333,-75.91413889,Humedad del aire 2 mt,%
0021015501,0027,2017-03-03T18:30:00.000,74,PITALITO  - AUT,HUILA,PITALITO,ALTO MAGDALENA,1.777527778,-76.19163889,Humedad del aire 2 mt,%
0016025503,0027,2017-05-23T06:10:00.000,91,GRAMALOTE  - AUT,NORTE DE SANTANDER,GRAMALOTE,CATATUMBO,7.923163889,-72.83375556,Humedad del aire 2 mt,%
0024055070,0027,2017-05-06T22:00:00.000,84,SAN  VICENTE DE CHUCURI  - AUT,SANTANDER,SAN VICENTE DE CHUCURÍ,MEDIO MAGDALENA,6.823388889,-73.47205556,Humedad del aire 2 mt,%
0051025090,0027,2018-02-08T20:00:00.000,97,GRANJA MIRA,NARINO,TUMACO,MIRA,1.55,-78.696,Humedad del aire 2 mt,%
0021115010,0027,2006-05-21T21:00:00.000,65,DESIERTO TATACOA,HUILA,VILLAVIEJA,ALTO MAGDALENA,3.234,-75.168,Humedad del aire 2 mt,%
0021115501,0027,2019-05-26T15:50:00.000,56.20687,TELLO  - AUT,HUILA,TELLO,ALTO MAGDALENA,2.960666667,-75.02849722,Humedad del aire 2 mt,%
0037015501,0027,2017-06-05T03:10:00.000,98.38221,LABATECA  - AUT,NORTE DE SANTANDER,LABATECA,ARAUCA,7.296058333,-72.49772778,Humedad del aire 2 mt,%
0027015320,0027,2009-10-23T19:00:00.000,94,ARAGON - AUT,ANTIOQUIA,SANTA ROSA DE OSOS,NECHÍ,6.781083333,-75.560888889,Humedad del aire 2 mt,%
2120000107,0027,2019-04-28T11:10:00.000,51.43,LA FISCALA - AUT,BOGOTA D.C.,"BOGOTA, D.C",ALTO MAGDALENA,4.536,-74.106,Humedad del aire 2 mt,%
0021215150,0027,2012-10-26T10:00:00.000,93,NEVADO DEL TOLIMA  - AUT,TOLIMA,ANZOÁTEGUI,ALTO MAGDALENA,4.670777778,-75.32777778,Humedad del aire 2 mt,%
0026155503,0027,2019-01-30T22:40:00.000,84.05916,PLANALTO  - AUT,CALDAS,MANIZALES,CAUCA,4.989722222,-75.58971944,Humedad del aire 2 mt,%
0023085501,0027,2019-08-06T22:00:00.000,58.24472,COCORNA  - AUT,ANTIOQUIA,COCORNÁ,MEDIO MAGDALENA,6.061941667,-75.18666667,Humedad del aire 2 mt,%
0021209940,0027,2015-03-28T14:25:00.000,68.5,GRAVILLERAS - FOPAE,BOGOTA D.C.,"BOGOTA, D.C",ALTO MAGDALENA,4.533,-74.117,Humedad del aire 2 mt,%
0026145503,0027,2019-08-16T06:25:00.000,93.70008,ANSERMA  - AUT,CALDAS,ANSERMA,CAUCA,5.231330556,-75.77961667,Humedad del aire 2 mt,%
0021035501,0027,2018-01-19T05:25:00.000,87.13348,ACEVEDO  - AUT,HUILA,ACEVEDO,ALTO MAGDALENA,1.763191667,-75.93224722,Humedad del aire 2 mt,%
0016015502,0027,2019-05-26T22:35:00.000,97.45642,BLONAY  - AUT,NORTE DE SANTANDER,CHINÁCOTA,CATATUMBO,7.564997222,-72.62110833,Humedad del aire 2 mt,%
0021202200,0027,2013-02-27T10:50:00.000,71,VITELMA,BOGOTA D.C.,"BOGOTA, D.C",META,4.575,-74.072,Humedad del aire 2 mt,%
2120700037,0027,2018-10-31T18:23:00.000,63.81,CASAS FISCALES ESCUELA DE ARTILLERÍA - AUT,BOGOTA D.C.,"BOGOTA, D.C",ALTO MAGDALENA,4.556,-74.125,Humedad del aire 2 mt,%
2120700037,0027,2019-02-27T03:58:00.000,72.92,CASAS FISCALES ESCUELA DE ARTILLERÍA - AUT,BOGOTA D.C.,"BOGOTA, D.C",ALTO MAGDALENA,4.556,-74.125,Humedad del aire 2 mt,%
0026145503,0027,2018-07-04T23:55:00.000,91.66018,ANSERMA  - AUT,CALDAS,ANSERMA,CAUCA,5.231330556,-75.77961667,Humedad del aire 2 mt,%
0021205518,0027,2019-04-22T18:20:00.000,99.998,SALITRE  - AUT,CUNDINAMARCA,TAUSA,ALTO MAGDALENA,5.171,-74.016,Humedad del aire 2 mt,%
0029035200,0027,2015-02-16T13:00:00.000,46,REPELON - AUT,ATLANTICO,REPELÓN,BAJO MAGDALENA,10.49,-75.12694444,Humedad del aire 2 mt,%
0036015501,0027,2019-04-23T04:25:00.000,89.37234,TAMARA  - AUT,CASANARE,TÁMARA,CASANARE,5.872219444,-72.11944167,Humedad del aire 2 mt,%
0021255160,0027,2005-04-14T23:00:00.000,72,HACIENDA PAJONALES,TOLIMA,AMBALEMA,ALTO MAGDALENA,4.760722222,-74.83425,Humedad del aire 2 mt,%
0026145507,0027,2016-09-23T11:45:00.000,56,LAS TANGAS  - AUT,CALDAS,BELALCAZAR,CAUCA,5.038,-75.80599722,Humedad del aire 2 mt,%
0026157170,0027,2013-04-01T11:00:00.000,93,CONEJERAS2 - AUT,CALDAS,VILLAMARIA,CAUCA,4.820388889,-75.37713889,Humedad del aire 2 mt,%
0026225060,0027,2016-08-14T00:00:00.000,77,HACIENDA COTOVE - AUT,ANTIOQUIA,SANTA FE DE ANTIOQUIA,CAUCA,6.533916667,-75.82733333,Humedad del aire 2 mt,%
0026065502,0027,2019-01-26T09:30:00.000,58.19844,TRINIDAD LA  - AUT,CAUCA,PIENDAMÓ,CAUCA,2.750555556,-76.57916667,Humedad del aire 2 mt,%
0026155250,0027,2012-09-22T20:00:00.000,98,PARAMO CONEJERAS  - AUT,CALDAS,VILLAMARIA,CAUCA,4.829805556,-75.37583333,Humedad del aire 2 mt,%
0054020020,0027,2019-02-17T06:00:00.000,98,PR CHOCO: NOVITA,CHOCÓ,NÓVITA,SAN JUÁN,4.956,-76.606,Humedad del aire 2 mt,%
0053115501,0027,2019-07-07T12:35:00.000,63.66861,DAGUA  - AUT,VALLE DEL CAUCA,DAGUA,TAPAJE - DAGUA - DIRECTOS,3.610441667,-76.63785833,Humedad del aire 2 mt,%
0035035100,0027,2015-07-19T18:00:00.000,87,ICA VILLAVICENCIO  - AUT,META,VILLAVICENCIO,META,4.137388889,-73.625,Humedad del aire 2 mt,%
0026145504,0027,2018-06-14T17:40:00.000,78.02361,OSPIRMA  - AUT,RISARALDA,GUÁTICA,CAUCA,5.325552778,-75.812775,Humedad del aire 2 mt,%
0026165502,0027,2017-11-15T02:15:00.000,99.88443,JARDIN  - AUT,ANTIOQUIA,JARDÍN,CAUCA,5.6,-75.84972222,Humedad del aire 2 mt,%
0021202220,0027,2013-11-19T21:20:00.000,88.31,PARAISO - FOPAE,BOGOTA D.C.,"BOGOTA, D.C",ALTO MAGDALENA,4.617,-74.05,Humedad del aire 2 mt,%
0011115501,0027,2017-07-16T04:20:00.000,95.25862,CAÑASGORDAS  - AUT,ANTIOQUIA,CAÑASGORDAS,ATRATO - DARIÉN,6.748275,-76.03155556,Humedad del aire 2 mt,%
0026125508,0027,2017-11-12T02:35:00.000,86.16804,LACATALINA  - AUT,RISARALDA,PEREIRA,CAUCA,4.7475,-75.73805556,Humedad del aire 2 mt,%
0023055502,0027,2017-06-11T22:45:00.000,92.90362,VILLARAZ  - AUT,CALDAS,PENSILVANIA,MEDIO MAGDALENA,5.383333333,-75.06638889,Humedad del aire 2 mt,%
0021206810,0027,2012-02-25T00:30:00.000,66.9,SAN BENITO - FOPAE,BOGOTA D.C.,"BOGOTA, D.C",ALTO MAGDALENA,4.55,-74.233,Humedad del aire 2 mt,%
0021115180,0027,2017-11-16T16:00:00.000,1,HACIENDA MANILA - AUT,HUILA,BARAYA,ALTO MAGDALENA,3.133055556,-75.08152778,Humedad del aire 2 mt,%
0026015010,0027,2014-11-25T14:00:00.000,68,EL TABLAZO - AUT,CAUCA,POPAYÁN,CAUCA,2.474833056,-76.58129361,Humedad del aire 2 mt,%
0051025090,0027,2018-05-22T19:00:00.000,97,GRANJA MIRA,NARINO,TUMACO,MIRA,1.55,-78.696,Humedad del aire 2 mt,%
0029035000,0027,2017-09-12T11:00:00.000,81,SINCERIN  - AUT,BOLIVAR,ARJONA,BAJO MAGDALENA,10.14258333,-75.27827778,Humedad del aire 2 mt,%
2120000102,0027,2019-08-03T00:03:00.000,83.8,COLEGIO CARLOS PIZARRO - AUT,BOGOTA D.C.,"BOGOTA, D.C",ALTO MAGDALENA,4.635,-74.205,Humedad del aire 2 mt,%
0021215150,0027,2013-03-18T22:00:00.000,94,NEVADO DEL TOLIMA  - AUT,TOLIMA,ANZOÁTEGUI,ALTO MAGDALENA,4.670777778,-75.32777778,Humedad del aire 2 mt,%
0026055110,0027,2006-04-28T02:00:00.000,95,LA INDEPENDENCIA - AUT,VALLE DEL CAUCA,JAMUNDÍ,CAUCA,3.185361111,-76.56930556,Humedad del aire 2 mt,%
2120000107,0027,2019-03-13T12:41:00.000,40.87,LA FISCALA - AUT,BOGOTA D.C.,"BOGOTA, D.C",ALTO MAGDALENA,4.536,-74.106,Humedad del aire 2 mt,%
0021215190,0027,2013-07-13T07:00:00.000,80,CAJAMARCA - AUT,TOLIMA,CAJAMARCA,ALTO MAGDALENA,4.435666667,-75.50036111,Humedad del aire 2 mt,%
0021215501,0027,2017-06-19T22:10:00.000,0.4224517,ESPERANZA LA  - AUT,TOLIMA,IBAGUÉ,ALTO MAGDALENA,4.45,-75.25,Humedad del aire 2 mt,%
2120700038,0027,2019-07-18T14:00:00.000,46.53,SAN FRANCISCO - AUT,BOGOTA D.C.,"BOGOTA, D.C",ALTO MAGDALENA,4.562,-74.149,Humedad del aire 2 mt,%
0021115170,0027,2015-06-02T01:00:00.000,92,LA PLATA - AUT,HUILA,NEIVA,ALTO MAGDALENA,2.759138889,-75.07455556,Humedad del aire 2 mt,%
0026145508,0027,2017-05-29T13:40:00.000,77,SAN JOSE  - AUT,CALDAS,SAN JOSE,CAUCA,5.094972222,-75.79174722,Humedad del aire 2 mt,%
0037015030,0027,2018-10-27T20:00:00.000,95,BERLIN - AUT,SANTANDER,TONA,ARAUCA,7.187,-72.8685,Humedad del aire 2 mt,%
0027015290,0027,2018-06-25T11:00:00.000,59,PAJARITO - AUT,ANTIOQUIA,MEDELLÍN,NECHÍ,6.286333333,-75.61279167,Humedad del aire 2 mt,%
